Provider Name,Federal Provider Number,Provider Address,Provider City,County,Residents Total Confirmed COVID-19,Residents Total Suspected COVID-19,Residents Total All Deaths,Residents Total COVID-19 Deaths,Total Number of Occupied Beds,Staff Total Confirmed COVID-19,Staff Total Suspected COVID-19,Staff Total COVID-19 Deaths,Latitude,Longitude
PROVIDENCE KODIAK ISLAND MED LTC,025030,1915 E REZANOF DRIVE,KODIAK,Kodiak Island Borough,0,4,2,0,22,0,8,0,57.800835,-152.373943
PETERSBURG MEDICAL CENTER LTC,025019,P.O. BOX 589,PETERSBURG,Wrangell-Petersburg,0,0,4,0,7,0,4,0,0,0
PROVIDENCE VALDEZ MEDICAL CENTER,025034,911 MEALS AVENUE,VALDEZ,Valdez-Chitina-Whittier,0,4,0,0,8,0,0,0,61.133261,-146.349974
SOUTH PENINSULA HOSPITAL LTC,025031,4300 BARTLETT STREET,HOMER,Kenai-Cook Inlet,0,0,3,0,18,6,47,0,59.652133000000006,-151.550296
CORDOVA COMMUNITY MED LTC,025028,P.O. BOX 160,CORDOVA,Cordova-Mccarthy,0,5,1,0,9,0,2,0,0,0
MAPLE SPRINGS OF WASILLA,025038,3265 E MERIDIAN LOOP,WASILLA,Matanuska-Susitna,0,1,1,0,58,3,37,0,0,0
PRESTIGE CARE & REHAB CENTER OF ANCHORAGE,025025,9100 CENTENNIAL DRIVE,ANCHORAGE,Anchorage,4,0,3,1,93,23,9,0,61.225333,-149.7151
DENALI CENTER,025020,1510 19TH AVENUE,FAIRBANKS,Fairbanks,0,14,5,0,68,14,28,0,64.830445,-147.742115
PROVIDENCE EXTENDED CARE,025036,920 COMPASSION CIRCLE,ANCHORAGE,Anchorage,8,1,9,0,88,19,34,0,61.213044,-149.774066
SEARHC SITKA LONG TERM CARE,025032,209 MOLLER AVENUE,SITKA,Sitka,1,0,4,0,14,1,0,0,57.058992,-135.345929
PROVIDENCE SEWARD MED & CARE CENTER LTC,025024,2203 OAK STREET (P.O. BOX 430),SEWARD,Seward,0,8,6,0,30,2,33,0,60.13240199999999,-149.443395
YUKON KUSKOKWIM ELDER'S HOME,025037,"1100 CHIEF EDDIE HOFFMAN HWY, PO BOX 528",BETHEL,Bethel,0,2,2,0,15,1,0,0,0,0
WILDFLOWER COURT,025027,2000 SALMON CREEK LANE,JUNEAU,Juneau,0,12,10,0,53,6,12,0,58.32931000000001,-134.464075
MAPLE SPRINGS OF PALMER,025039,12130 EAST MAPLE SPRINGS WAY,PALMER,Matanuska-Susitna,0,0,2,0,21,7,2,0,0,0
QUYANNA CARE CENTER,025026,1100 GREG KRUSCHEK AVENUE (P.O. BOX 966),NOME,Nome,0,0,3,0,16,1,0,0,0,0
KETCHIKAN MED CTR NEW HORIZONS TRANSITIONAL CARE,025010,3100 TONGASS AVENUE,KETCHIKAN,Ketchikan,0,9,3,0,18,0,0,0,55.352717,-131.686049
HERITAGE PLACE,025021,232 ROCKWELL AVENUE,SOLDOTNA,Kenai-Cook Inlet,0,0,0,0,52,6,8,0,60.493166,-151.082422
WRANGELL MEDICAL CENTER LTC,025015,P.O. BOX 1081,WRANGELL,Wrangell-Petersburg,2,0,3,0,13,2,0,0,0,0
UTUQQANAAT INAAT,025035,436 MISSION STREET,KOTZEBUE,Not Available,0,0,2,0,17,1,0,0,66.895635,-162.589499
PROVIDENCE TRANSITIONAL CARE CENTER,025018,910 COMPASSION CIRCLE,ANCHORAGE,Anchorage,19,0,6,2,30,25,20,0,61.212083,-149.773719
SYLACAUGA HEALTH AND REHAB SERVICES,015160,1007 W FORT WILLIAMS ST,SYLACAUGA,Talladega,49,60,50,11,119,49,17,0,33.16723,-86.267588
CROWNE HEALTH CARE OF MOBILE,015100,954 NAVCO ROAD,MOBILE,Mobile,8,1,12,5,112,15,2,1,30.652376999999998,-88.101369
WESTSIDE TERRACE HEALTH & REHABILITATION CENTER,015425,501 NORTH WOODBURN DRIVE,DOTHAN,Houston,6,13,14,0,147,16,25,0,31.242318,-85.45514
CROWNE HEALTH CARE OF THOMASVILLE,015220,1425 MOSLEY DRIVE,THOMASVILLE,Clarke,4,1,13,0,68,16,0,0,31.931292,-87.736349
"VALLEY VIEW HEALTH AND REHABILITATION, LLC",015431,5968 WALL TRIANA HIGHWAY,MADISON,Madison,13,3,20,1,140,22,20,0,34.755024,-86.749704
"WETUMPKA HEALTH AND REHABILITATION, LLC",015027,1825 HOLTVILLE ROAD,WETUMPKA,Elmore,60,3,39,5,100,38,6,0,32.558544,-86.221265
DIVERSICARE OF ARAB,015148,235 THIRD STREET SE,ARAB,Marshall,16,6,8,0,77,14,10,0,34.312876,-86.492998
WOODHAVEN MANOR NURSING HOME,015177,105 WEST WINDSOR ST,DEMOPOLIS,Marengo,10,17,7,1,66,12,22,0,32.500826,-87.835559
FAIRHOPE HEALTH & REHAB,015222,108 SOUTH CHURCH STREET,FAIRHOPE,Baldwin,3,4,0,0,64,15,0,0,30.520236,-87.904817
DIVERSICARE OF OXFORD,015132,1130 SOUTH HALE STREET,OXFORD,Calhoun,85,0,19,11,116,32,0,0,33.606969,-85.829657
SUNSET MANOR,015149,251 SUNSET PLACE,GUIN,Marion,3,8,6,0,62,5,6,0,33.96997,-87.917408
"MONTGOMERY HEALTH AND REHAB, LLC",015228,4490 VIRGINIA LOOP ROAD,MONTGOMERY,Montgomery,74,3,11,5,65,46,14,0,32.317353,-86.238939
"SUMTER HEALTH AND REHABILITATION, L L C",015042,1505 EAST 4TH AVENUE,YORK,Sumter,85,1,17,3,82,83,11,0,32.496973,-88.28415
CROWNE HEALTH CARE OF FT PAYNE,015156,403 13TH STREET NORTHWEST,FORT PAYNE,DeKalb,27,0,8,2,99,29,5,1,34.454657,-85.715164
WILLOWBROOKE CT SKILLED CARE CTR AT MAGNOLIA TRACE,015450,ONE CROWN CIRCLE,HUNTSVILLE,Madison,4,0,10,1,41,10,0,0,0,0
ATTALLA HEALTH AND REHAB,015203,915 STEWART AVENUE SOUTHEAST,ATTALLA,Etowah,43,1,17,7,82,88,14,0,33.984972,-86.107809
"SOUTH HAVEN HEALTH AND REHABILITATION, LLC",015321,3141 OLD COLUMBIANA ROAD,BIRMINGHAM,Jefferson,60,18,30,18,80,45,2,0,33.406063,-86.808144
EXTENDICARE HEALTH CENTER,015152,950 SOUTH ST. ANDREWS STREET,DOTHAN,Houston,60,71,49,14,133,67,100,0,31.211341,-85.390383
MERRY WOOD LODGE,015019,P O BOX 130,ELMORE,Elmore,56,43,23,5,84,54,14,0,0,0
SELF HEALTH CARE & REHAB CENTER INC,015212,131 EAST CREST ROAD,HUEYTOWN,Jefferson,2,1,16,0,61,8,6,0,33.458202,-86.991687
"BURNS NURSING HOME, INC.",015009,701 MONROE STREET NW,RUSSELLVILLE,Franklin,48,2,6,5,53,42,14,0,34.514971,-87.736372
ADAMS NURSING HOME,015386,1555 HILLABEE STREET,ALEXANDER CITY,Tallapoosa,0,5,5,0,55,4,7,0,32.944915,-85.93431400000001
"TALLASSEE HEALTH AND REHABILITATION, LLC",015139,2639 GILMER AVENUE  P O BOX 780277,TALLASSEE,Elmore,3,1,29,0,80,14,8,0,32.569049,-85.937908
"FOLSOM CENTER FOR REHABILITATION AND HEALTHCARE, T",015437,401 ARNOLD STREET N.E.,CULLMAN,Cullman,19,36,24,0,77,20,90,2,34.181184,-86.840555
CROWNE HEALTH CARE OF MONTGOMERY,015393,1837 UPPER WETUMPKA ROAD,MONTGOMERY,Montgomery,44,6,54,8,135,27,16,0,32.386047,-86.282117
"TERRACE MANOR NURSING & REHABILITATION CENTER, INC",015066,390 UNDERWOOD ROAD,RUSSELLVILLE,Franklin,0,3,5,0,52,6,26,0,34.51299,-87.719572
EAST ALABAMA MEDICAL CENTER SKILLED NURSING FACILI,015410,2000 PEPPERELL PARKWAY,OPELIKA,Lee,4,1,5,0,14,7,13,0,32.638055,-85.404003
CYPRESS COVE CARE CENTER,015392,200 ALABAMA AVENUE,MUSCLE SHOALS,Colbert,31,9,13,0,68,24,8,0,0,0
WEST HILL HEALTH AND REHAB,015303,1028 BESSEMER RD,BIRMINGHAM,Jefferson,61,1,12,1,60,26,0,0,33.47607,-86.899142
OAK PARK,015452,1365 GATEWOOD DRIVE,AUBURN,Lee,8,14,8,0,75,6,23,0,32.63319,-85.450592
CHOCTAW HEALTH AND REHAB,015164,1406 EAST PUSHMATAHA STREET,BUTLER,Choctaw,50,50,15,9,54,25,24,0,32.08991,-88.206819
MEADOWVIEW NURSING CENTER,015400,7300 OLD HIGHWAY 78 EAST,PELL CITY,St. Clair,28,34,8,5,48,15,53,0,0,0
"PHENIX CITY HEALTH CARE, INC",015331,3900 LAKEWOOD DRIVE,PHENIX CITY,Russell,50,0,20,7,57,42,9,0,32.497496,-85.034045
"NORTH HILL NURSING AND REHABILITATION CTR, LLC",015091,200 NORTH PINE HILL ROAD,BIRMINGHAM,Jefferson,24,17,26,6,171,12,5,0,33.60914,-86.769544
DECATUR HEALTH & REHAB CENTER,015206,2326 MORGAN AVENUE SOUTHWEST,DECATUR,Morgan,58,82,24,9,67,33,19,0,34.568871,-87.008052
BIRMINGHAM NURSING AND REHABILITATION CTR LLC,015217,1000 DUGAN AVENUE,BIRMINGHAM,Jefferson,30,13,16,1,118,16,14,0,33.547224,-86.881976
SOUTH HAMPTON NURSING & REHABILITATION CENTER,015448,213 WILSON MANN ROAD,OWENS CROSS ROADS,Madison,0,1,3,0,58,3,6,0,34.587484,-86.454131
FAYETTE MEDICAL CENTER LONG TERM CARE UNIT,015154,1653 TEMPLE AVENUE NORTH,FAYETTE,Fayette,21,31,16,3,90,32,39,0,33.707708,-87.823706
ARLINGTON REHABILITATION & HEALTHCARE CENTER,015153,"1020 TUSCALOOSA AVENUE, SW",BIRMINGHAM,Jefferson,80,0,25,17,94,55,3,0,33.495663,-86.849493
EVERGREEN NURSING HOME,015089,100 SANDERS DRIVE,EVERGREEN,Conecuh,41,0,8,6,53,23,0,0,31.422084,-86.94537
"GENERATIONS OF VERNON, LLC",015227,1050 CONVALESCENT ROAD,VERNON,Lamar,64,21,13,9,94,53,60,0,33.723473,-88.171487
MARION REGIONAL NURSING HOME,015167,184 SASSER DRIVE,HAMILTON,Marion,34,37,24,7,57,35,59,1,34.125111,-87.991194
"OPP HEALTH AND REHABILITATION, LLC",015210,115 PAULK AVENUE  P O BOX 730,OPP,Covington,89,14,51,21,128,55,15,0,0,0
MARENGO NURSING HOME,015330,608 NORTH MAIN STREET,LINDEN,Marengo,2,3,10,0,56,8,8,0,32.314081,-87.798181
CUMBERLAND HEALTH AND REHAB,015420,47065 AL HIGHWAY 277,BRIDGEPORT,Jackson,8,0,10,0,69,23,13,0,34.918678,-85.763719
EASTERN SHORE REHABILITATION AND HEALTH CENTER,015049,"101 VILLA DRIVE, P O BOX 1090",DAPHNE,Baldwin,17,43,36,1,78,18,18,0,30.612983,-87.910493
COOSA VALLEY HEALTH AND REHAB,015174,513 PINEVIEW AVENUE,GLENCOE,Etowah,55,60,15,9,87,35,35,0,33.954671,-85.922042
RUSSELLVILLE HEALTH CARE INC,015071,705 NORTHEAST GANDY STREET,RUSSELLVILLE,Franklin,34,21,10,4,39,37,43,0,34.509977,-87.71927
ST MARTIN'S IN THE PINES,015433,4941 MONTEVALLO ROAD,BIRMINGHAM,Jefferson,14,0,25,0,92,26,0,0,33.52718,-86.717311
"ARBOR SPRINGS HEALTH AND REHAB CENTER, LTD",015192,1910 PEPPERELL PKWY,OPELIKA,Lee,69,0,62,19,116,63,2,0,32.638357,-85.401017
FAIR HAVEN,015076,1424 MONTCLAIR ROAD,BIRMINGHAM,Jefferson,38,1,47,5,204,35,2,0,33.523365,-86.727038
HIGHLANDS HEALTH AND REHAB,015012,380 WOODS COVE ROAD,SCOTTSBORO,Jackson,2,35,14,0,38,8,37,0,34.661254,-86.047116
"ASHLAND PLACE HEALTH AND REHABILITATION, LLC",015103,148 TUSCALOOSA ST,MOBILE,Mobile,82,19,45,21,114,28,5,0,30.690000999999995,-88.087694
HENRY COUNTY HEALTH AND REHABILITATION FACILITY,015373,212 DOTHAN ROAD,ABBEVILLE,Henry,31,74,34,5,85,38,74,0,31.55448,-85.25308400000002
MONTROSE BAY HEALTH AND REHAB,015447,22670 MAIN STREET,FAIRHOPE,Baldwin,39,0,2,2,56,20,0,0,30.555349,-87.899732
"JACKSONVILLE HEALTH AND REHABILITATION, LLC",015391,410 WILSON DRIVE SOUTHWEST,JACKSONVILLE,Calhoun,78,9,33,15,157,57,10,0,33.809973,-85.765334
GADSDEN HEALTH AND REHAB CENTER,015180,1945 DAVIS DRIVE,GADSDEN,Etowah,90,108,30,17,121,57,16,1,33.98946800000001,-86.028613
RIVER CITY CENTER,015113,1350 FOURTEENTH AVENUE SOUTHEAST,DECATUR,Morgan,51,10,35,0,139,32,2,0,34.586299,-86.970492
HILLVIEW TERRACE,015436,100 PERRY HILL RD,MONTGOMERY,Montgomery,59,7,46,12,118,44,0,0,32.381057,-86.24659200000002
SIGNATURE HEALTHCARE OF WHITESBURG GARDENS,015116,105 TEAKWOOD DRIVE SW,HUNTSVILLE,Madison,79,2,26,8,90,62,0,0,34.697345000000006,-86.57047
"HUNTSVILLE HEALTH & REHABILITATION, LLC",015440,4010 CHRIS DRIVE,HUNTSVILLE,Madison,8,7,17,1,91,10,10,0,34.677399,-86.578866
ALBERTVILLE NURSING HOME,015163,750 ALABAMA HIGHWAY 75 NORTH,ALBERTVILLE,Marshall,67,37,37,13,149,63,31,0,34.281539,-86.193455
"HUNTER CREEK HEALTH AND REHABILITATION, LLC",015034,600 34TH ST,NORTHPORT,Tuscaloosa,43,6,17,4,69,14,9,0,33.239209,-87.620846
MAGNOLIA HAVEN HEALTH AND REHABILITATION CENTER,015112,603 WRIGHT STREET,TUSKEGEE,Macon,24,8,10,2,85,45,7,0,32.432819,-85.691216
MOUNT ROYAL TOWERS,015455,300 ROYAL TOWER DRIVE,BIRMINGHAM,Jefferson,1,1,13,0,112,9,7,0,33.465377,-86.769205
DIVERSICARE OF MONTGOMERY,015040,2020 NORTH COUNTRY CLUB DRIVE,MONTGOMERY,Montgomery,83,1,15,12,82,35,15,0,32.358466,-86.279247
"WALKER REHABILITATION CENTER, INC",015408,350 NORTHEAST 4TH STREET     P O BOX 30,CARBON HILL,Walker,18,8,4,4,43,30,4,0,33.888127,-87.522981
"GRAND BAY CONVALESCENT HOME, INC.",015406,13750 HIGHWAY 90 WEST P.O. BOX 328,GRAND BAY,Mobile,1,2,10,0,62,12,0,0,0,0
AHAVA HEALTHCARE OF ALABASTER,015144,"850 9TH STREET, NORTHWEST",ALABASTER,Shelby,59,5,13,5,125,25,18,0,33.253477,-86.826511
CROWNE HEALTH CARE OF SPRINGHILL,015426,3712 DAUPHIN ST,MOBILE,Mobile,2,0,3,0,23,5,0,0,30.686734000000005,-88.131367
BARFIELD HEALTH CARE,015225,22444 HIGHWAY 431,GUNTERSVILLE,Marshall,67,35,53,9,91,50,63,0,34.421687,-86.263931
OAKVIEW MANOR HEALTH CARE CENTER,015216,929 MIXON SCHOOL ROAD,OZARK,Dale,78,21,34,18,90,39,55,0,31.428264,-85.646107
JOHN KNOX MANOR INC  I I,015135,4401 NARROW LANE ROAD,MONTGOMERY,Montgomery,0,1,9,0,46,8,12,0,32.322232,-86.282062
DIVERSICARE OF FOLEY,015032,1701 NORTH ALSTON STREET,FOLEY,Baldwin,54,1,11,8,99,76,8,1,30.427691000000003,-87.685462
LAUDERDALE CHRISTIAN NURSING HOME,015361,2019 COUNTY ROAD 394,KILLEN,Lauderdale,13,7,10,0,57,12,12,0,34.912422,-87.528812
"SOUTH HEALTH AND REHABILITATION, LLC",015097,1220 SOUTH 17TH STREET,BIRMINGHAM,Jefferson,47,1,12,2,62,44,4,1,33.496663,-86.799773
SENIOR REHAB & RECOVERY AT LIMESTONE HEALTH FACILI,015024,1600 WEST HOBBS STREET,ATHENS,Limestone,80,65,58,11,114,37,47,0,34.805249,-86.991581
"PARK MANOR HEALTH AND REHABILITATION, LLC",015326,2201 MCFARLAND BOULEVARD,NORTHPORT,Tuscaloosa,72,12,31,9,124,44,30,0,33.239917,-87.579677
MONTGOMERY CHILDREN'S SPECIALTY CENTER,01A208,2853 FORBES DRIVE,MONTGOMERY,Montgomery,7,0,0,0,46,18,1,1,32.42435,-86.286729
"ELBA NURSING AND REHABILITATION CENTER, LLC",015083,987 DRAYTON STREET,ELBA,Coffee,24,8,18,3,98,12,12,0,31.429030999999995,-86.076329
SPRINGHILL SENIOR RESIDENCE,015435,3717 DAUPHIN STREET,MOBILE,Mobile,0,30,17,0,75,4,63,0,30.687059999999995,-88.130213
JACKSON HEALTH CARE FACILITY,015188,2616 NORTH COLLEGE AVENUE,JACKSON,Clarke,1,10,24,0,69,12,30,0,0,0
EAMC LANIER NURSING HOME,015045,4800 48TH STREET,VALLEY,Chambers,2,42,24,1,83,19,85,0,32.82397,-85.1702
WILLOWBROOKE CT SKILLED CARE CTR WESTMINSTER VLG,015381,500 SPANISH FORT BLVD,SPANISH FORT,Baldwin,9,0,13,1,30,17,2,0,30.668202000000004,-87.902895
PLANTATION MANOR NURSING HOME,015015,6450 OLD TUSCALOOSA HIGHWAY   P O BOX 97,MC CALLA,Jefferson,0,0,10,0,83,1,0,0,33.322518,-87.033532
CLAY COUNTY NURSING HOME,015124,83825 HIGHWAY 9   P O BOX 1270,ASHLAND,Clay,59,22,19,13,56,35,39,1,33.276548,-85.82378900000002
LITTLE SISTERS OF THE POOR SACRED HEART RESIDENCE,015168,1655 MCGILL AVENUE,MOBILE,Mobile,25,1,11,3,58,53,1,0,30.684156,-88.078467
CLOVERDALE REHABILITATION AND NURSING CENTER,015184,412 CLOVERDALE ROAD,SCOTTSBORO,Jackson,40,15,28,6,119,29,58,1,34.662102,-86.04946
"SELMA HEALTH AND REHAB, LLC",015119,11 BELL ROAD,SELMA,Dallas,59,11,4,0,112,31,5,0,32.42679,-87.046679
SOUTHLAND NURSING HOME,015104,500 SHIVERS TERRACE,MARION,Perry,34,1,48,48,52,22,3,0,32.615469,-87.308695
"CORDOVA HEALTH AND REHABILITATION, LLC",015115,70 HIGHLAND STREET WEST,CORDOVA,Walker,16,5,28,3,100,16,23,0,33.762015,-87.184853
"GULF COAST HEALTH AND REHABILITATION, LLC",015456,8002 GRELOT ROAD,MOBILE,Mobile,32,12,13,1,72,35,3,0,30.661305000000002,-88.230211
GREENBRIAR AT THE ALTAMONT SKILLED NURSING FACILIT,015446,2831 HIGHLAND AVENUE SOUTH,BIRMINGHAM,Jefferson,39,0,13,5,83,38,0,0,33.506060000000005,-86.782274
AZALEA GARDENS OF MOBILE,015151,1758 SPRINGHILL AVE,MOBILE,Mobile,29,3,10,1,83,20,5,0,30.691974,-88.082071
FOREST MANOR HEALTH AND REHAB,015143,2215 32ND STREET,NORTHPORT,Tuscaloosa,77,27,45,26,128,43,36,1,33.239022,-87.580309
GLENWOOD CENTER,015147,211 ANA DRIVE,FLORENCE,Lauderdale,10,7,24,0,101,9,24,0,34.833104,-87.631777
BIRMINGHAM NURSING AND REHABILITATION CENTER EAST,015134,733 MARY VANN LANE,BIRMINGHAM,Jefferson,6,0,8,0,118,25,0,0,33.634742,-86.665468
GOODWATER HEALTHCARE CENTER,015204,16 JONES HILL ROAD,GOODWATER,Coosa,0,0,5,0,63,1,0,0,33.067394,-86.052701
OAKS ON PARKWOOD SKILLED NURSING FACILITY,015369,2625 LAUREL OAK DRIVE,BESSEMER,Jefferson,10,0,57,1,104,14,7,0,33.36173,-86.888227
DIVERSICARE OF PELL CITY,015189,"510 WOLF CREEK ROAD, NORTH",PELL CITY,St. Clair,84,2,27,19,66,43,3,0,33.595754,-86.310642
ENTERPRISE HEALTH & REHABILITATION CENTER,015320,300 PLAZA DRIVE P O BOX 311227,ENTERPRISE,Coffee,28,0,55,0,161,57,33,0,31.30296,-85.836699
MARSHALL MANOR NURSING HOME,015378,3120 NORTH STREET,GUNTERSVILLE,Marshall,1,2,20,0,71,14,19,0,34.316279,-86.312714
DIVERSICARE OF BOAZ,015063,600 CORLEY AVENUE,BOAZ,Marshall,15,0,11,0,92,26,0,0,34.219899,-86.161699
FLORALA HEALTH AND REHABILITATION LLC,015451,23621 GOLDENROD AVENUE,FLORALA,Covington,22,4,14,1,74,23,17,0,31.001042000000005,-86.311653
KNOLLWOOD HEALTHCARE,015463,3151-A KNOLLWOOD DRIVE,MOBILE,Mobile,26,18,16,14,64,51,35,0,30.623804999999997,-88.173687
PERRY COUNTY NURSING HOME,015158,505 EAST LAFAYETTE STREET,MARION,Perry,37,1,6,2,59,35,12,0,32.631705,-87.310044
SUMMERFORD NURSING HOME INC,015075,4087 HIGHWAY 31 SOUTHWEST,FALKVILLE,Morgan,9,28,46,0,188,23,123,0,34.385159,-86.911951
KENSINGTON HEALTH AND REHABILITATION,015429,550 CONGRESS STREET,MOBILE,Mobile,70,2,20,5,108,41,8,0,30.694418,-88.051751
TROY HEALTH & REHABILITATION CENTER,015213,515 ELBA HIGHWAY,TROY,Pike,25,45,17,3,136,19,35,0,31.779017,-85.963219
CROWNE HEALTH CARE OF CITRONELLE,015121,19225 NORTH 4TH STREET,CITRONELLE,Mobile,46,2,12,5,63,42,1,1,31.092237000000004,-88.242325
LAFAYETTE NURSING HOME,015414,555 B STREET SW,LAFAYETTE,Chambers,5,0,6,0,44,6,3,0,32.885534,-85.407587
GREENE COUNTY NURSING HOME,015178,509 WILSON AVE,EUTAW,Greene,22,2,12,12,36,4,0,0,32.844744,-87.889307
ATHENS HEALTH AND REHABILITATION LLC,015016,611 WEST MARKET STREET,ATHENS,Limestone,13,8,46,0,115,19,27,0,34.803468,-86.976937
CHARLTON PLACE REHAB AND HEALTHCARE CENTER,015460,65 CHARLTON PLACE,DEATSVILLE,Elmore,6,1,0,0,59,18,2,0,32.504623,-86.416539
PIEDMONT HEALTH CARE CENTER,015194,30 ROUNDTREE DRIVE,PIEDMONT,Calhoun,38,4,28,11,65,16,11,0,33.908571,-85.60789
"GLEN HAVEN HEALTH AND REHABILITATION, LLC",015186,2201 32ND STREET,NORTHPORT,Tuscaloosa,33,16,29,7,176,41,7,2,33.238719,-87.579001
ROBERTSDALE REHABILITATION & HEALTHCARE CTR,015443,18700 U S HIGHWAY 90,ROBERTSDALE,Baldwin,48,5,5,0,116,42,7,0,30.563858000000003,-87.70559
"CIVIC CENTER HEALTH AND REHABILITATION, LLC",015109,1201 22ND STREET NORTH,BIRMINGHAM,Jefferson,0,15,13,0,88,3,2,0,33.528778,-86.811724
"RIDGEWOOD HEALTH SERVICES, INC.",015315,201 OAKHILL ROAD,JASPER,Walker,13,1,28,1,79,28,0,0,33.850615,-87.280154
WOODLAND VILLAGE REHABILITATION AND HEALTHCARE CEN,015383,1900 OLIVE STREET,CULLMAN,Cullman,43,13,50,5,86,32,30,0,34.151669,-86.853063
EAST GLEN,015388,53 MEDICAL PARK DRIVE EAST,BIRMINGHAM,Jefferson,3,0,7,0,93,18,5,0,33.596299,-86.664617
COOSA VALLEY HEALTHCARE CENTER,015010,260 WEST WALNUT STREET,SYLACAUGA,Talladega,7,33,2,2,71,11,43,0,33.163735,-86.254687
GALLERIA WOODS SKILLED NURSING FACILITY,015459,3850 GALLERIA WOODS DRIVE,BIRMINGHAM,Jefferson,0,1,2,0,30,5,0,0,33.365101,-86.81743
"CROSSVILLE HEALTH AND REHABILITATION, LLC",015176,8922 HIGHWAY 227,CROSSVILLE,DeKalb,77,4,37,5,127,68,10,0,34.295715,-85.987986
SHADESCREST HEALTH CARE CENTER,015114,331 WEST 25TH STREET,JASPER,Walker,47,9,14,5,80,36,50,0,33.826314,-87.27810500000001
KELLER LANDING,015028,813 KELLER LANE,TUSCUMBIA,Colbert,13,2,12,0,65,31,5,0,34.742978,-87.705834
NORTH MOBILE NURSING AND REHABILITATION CTR,015183,4525 ST STEPHENS ROAD,EIGHT MILE,Mobile,46,36,30,13,126,43,26,0,30.764495999999998,-88.12817000000001
MAGNOLIA RIDGE,015133,420 DEAN DRIVE,GARDENDALE,Jefferson,26,1,15,0,127,18,0,0,33.650017,-86.798514
BROWN NURSING HOME,015191,2334 WASHINGTON STREET,ALEXANDER CITY,Tallapoosa,2,9,8,0,63,1,28,0,32.952411,-85.979185
ATMORE NURSING CENTER,015129,715 EAST LAUREL STREET,ATMORE,Escambia,38,3,18,7,81,23,9,0,31.016117,-87.478489
HARTFORD HEALTH CARE,015419,217 TORO ROAD,HARTFORD,Geneva,65,1,3,2,82,14,1,0,31.102013999999997,-85.679378
"NHC HEALTHCARE, ANNISTON",015120,2300 COLEMAN RD,ANNISTON,Calhoun,74,62,78,12,109,93,128,0,33.63181,-85.803373
DADEVILLE HEALTHCARE CENTER,015166,351 NORTH EAST STREET,DADEVILLE,Tallapoosa,54,2,19,8,92,21,1,0,32.833963,-85.759194
TERRACE OAKS CARE & REHABILITATION CENTER,015060,4201 BESSEMER SUPER HIGHWAY,BESSEMER,Jefferson,6,0,0,0,52,19,0,0,33.430499,-86.941519
FATHER PURCELL MEMORIAL EXCEPTIONAL CHILDREN'S CTR,01A193,2048 W FAIRVIEW AVE,MONTGOMERY,Montgomery,11,0,1,0,47,13,0,0,32.351485,-86.32689
EL REPOSO NURSING FACILITY,015402,260 MILNER CHAPEL ROAD,FLORENCE,Lauderdale,3,3,17,1,57,4,14,0,34.969866,-87.582079
OAK TRACE CARE & REHABILITATION CENTER,015050,325 SELMA ROAD,BESSEMER,Jefferson,12,0,12,1,62,22,0,0,33.429256,-86.94124
CROWNE HEALTH CARE OF GREENVILLE,015193,408 COUNTRY CLUB DRIVE,GREENVILLE,Butler,58,17,26,19,69,38,39,0,31.842381,-86.636685
"HANCEVILLE NURSING & REHAB CENTER, INC",015073,420 MAIN STREET NE,HANCEVILLE,Cullman,32,25,23,3,191,21,21,0,34.062879,-86.771875
TRUSSVILLE HEALTH & REHABILITATION CENTER,015467,119 WATTERSON PARKWAY,TRUSSVILLE,Jefferson,25,3,21,6,86,12,12,0,33.613592000000004,-86.609624
DIVERSICARE OF BIG SPRINGS,015111,500 ST. CLAIR AVENUE SOUTHWEST,HUNTSVILLE,Madison,93,4,14,10,106,32,7,1,34.721746,-86.586137
VILLAGE AT COOK SPRINGS SKILLED NURSING FACILITY,015195,415 COOK SPRINGS,PELL CITY,St. Clair,73,11,38,22,95,45,36,0,33.593208,-86.398024
CHEROKEE COUNTY HEALTH AND REHABILITATION CENTER,015200,877 CEDAR BLUFF ROAD,CENTRE,Cherokee,77,3,47,16,141,84,2,0,34.16484,-85.662084
"CRIMSON HEALTH AND REHAB, LLC",015037,3312 WOODLEY ROAD,MONTGOMERY,Montgomery,3,0,2,0,50,14,0,0,32.31802100000001,-86.261591
BROOKSHIRE HEALTHCARE CENTER,015127,4320 JUDITH LANE,HUNTSVILLE,Madison,39,1,10,4,97,16,7,0,34.716006,-86.629849
HENDRIX HEALTH AND REHABILITATION,015138,1000 HIGHWAY 33,DOUBLE SPRINGS,Winston,48,14,27,3,93,22,32,0,34.163162,-87.409783
ENGLEWOOD HEALTH CARE CENTER,015322,2046 SOUTH ALABAMA AVE,MONROEVILLE,Monroe,25,5,14,3,70,21,9,0,31.499204000000002,-87.319172
MITCHELL-HOLLINGSWORTH NURSING & REHABILITATION,015031,805 FLAGG CIRCLE,FLORENCE,Lauderdale,12,57,37,0,170,34,123,1,34.80827,-87.687293
"COLUMBIANA HEALTH AND REHABILITATION, LLC",015453,22969 HIGHWAY 25,COLUMBIANA,Shelby,52,18,31,10,49,50,14,0,33.19437,-86.591664
"GENERATIONS OF RED BAY, LLC",015201,106 TENTH AVENUE NORTHWEST,RED BAY,Franklin,3,19,10,1,59,7,66,0,34.450158,-88.146575
AHC MILLENIUM,015458,5275 MILLENNIUM DRIVE,HUNTSVILLE,Madison,0,9,20,0,73,5,5,0,34.753558,-86.6647
WEST GATE VILLAGE,015035,100 PINEVIEW AND THIRD P.O. BOX 49,BREWTON,Escambia,68,11,11,8,100,42,15,0,0,0
HALEYVILLE HEALTH CARE CENTER,015157,2201 11TH AVENUE,HALEYVILLE,Winston,5,5,20,1,50,15,21,0,34.228696,-87.621338
WESLEY PLACE ON HONEYSUCKLE,015175,718 HONEYSUCKLE ROAD,DOTHAN,Houston,92,4,41,27,132,68,20,0,31.219941,-85.434841
COTTAGE OF THE SHOALS,015067,500 JOHN ALDRIDGE DRIVE,TUSCUMBIA,Colbert,18,8,15,1,65,31,19,0,34.726575,-87.679028
DIVERSICARE OF LANETT,015196,702 SOUTH 13TH STREET,LANETT,Chambers,9,1,39,0,75,17,6,0,32.857048,-85.19576
HERITAGE HEALTH CARE & REHAB INC,015371,1101 SNOWS MILL AVENUE,TUSCALOOSA,Tuscaloosa,70,31,45,12,118,56,24,0,33.228213,-87.56034
ALTOONA  HEALTH & REHAB,015101,6532 WALNUT GROVE ROAD,ALTOONA,Etowah,34,3,5,5,43,33,1,0,34.034331,-86.31955400000001
TLC NURSING CENTER,015422,212 ELLEN STREET,ONEONTA,Blount,56,7,28,10,67,28,0,0,33.964315,-86.456099
ASPIRE PHYSICAL RECOVERY CENTER AT CAHABA RIVER,015468,3070 HEALTHY WAY,VESTAVIA,Jefferson,11,9,25,0,91,15,4,0,33.427556,-86.737347
KIRKWOOD BY THE RIVER,015457,3605 RATLIFF ROAD,BIRMINGHAM,Jefferson,22,0,7,7,39,15,0,0,33.542569,-86.634703
LEGACY HEALTH AND REHABILITATION OF PLEASANT GROVE,015461,30 7TH STREET,PLEASANT GROVE,Jefferson,9,32,19,0,117,14,12,1,33.489091,-86.956908
ORCHARD REHABILITATION & HEALTHCARE CENTER,015442,629 STATE HIGHWAY 21 SOUTH,HAYNEVILLE,Lowndes,10,0,4,4,52,25,0,0,32.178871,-86.590764
ANNISTON HEALTH AND REHAB SERVICES,015375,600 E 8TH STREET,ANNISTON,Calhoun,1,0,8,0,60,12,0,0,0,0
MONROE MANOR HEALTH & REHABILITATION CENTER,015398,236 WEST CLAIBORNE STREET,MONROEVILLE,Monroe,54,17,9,5,63,58,28,0,31.526525,-87.328088
"NHC HEALTHCARE, MOULTON",015128,300 HOSPITAL STREET,MOULTON,Lawrence,76,1,28,25,94,58,2,0,34.483691,-87.28598900000001
HATLEY HEALTH CARE INC,015023,300 MEDICAL CENTER DRIVE,CLANTON,Chilton,104,20,35,25,99,86,54,0,32.854872,-86.626014
"TALLADEGA HEALTHCARE CENTER, INC",015162,616 CHAFFEE STREET,TALLADEGA,Talladega,117,220,14,5,178,67,59,0,33.427681,-86.0881
SHELBY RIDGE NURSING HOME,015411,881 3RD STREET NORTHEAST,ALABASTER,Shelby,58,71,53,13,124,42,72,0,33.251015,-86.811821
"LUVERNE HEALTH AND REHABILITATION, LLC",015336,142 WEST THIRD STREET,LUVERNE,Crenshaw,80,16,47,17,114,54,31,0,31.716316,-86.266136
"GEORGIANA HEALTH AND REHABILITATION, LLC",015182,206 PALMER AVENUE,GEORGIANA,Butler,29,1,16,2,84,11,4,0,31.642937,-86.73282100000002
DIVERSICARE OF BESSEMER,015209,820 GOLF COURSE ROAD,BESSEMER,Jefferson,78,2,42,26,130,54,3,1,33.369766,-86.991533
DIVERSICARE OF RIVERCHASE,015145,2500 RIVERHAVEN DRIVE,BIRMINGHAM,Jefferson,62,26,16,13,103,39,11,0,0,0
COLLINSVILLE HEALTHCARE & REHAB,015207,685 NORTH VALLEY AVE,COLLINSVILLE,DeKalb,75,45,33,8,141,66,38,1,34.271329,-85.857688
SPRINGHILL MANOR NURSING HOME,015415,3900 OLD SHELL ROAD,MOBILE,Mobile,4,2,2,0,0,8,2,0,30.698571000000005,-88.134047
ARBOR WOODS HEALTH AND REHAB,015141,515 2ND AVENUE NORTHWEST,REFORM,Pickens,0,0,6,0,53,4,2,0,33.381773,-88.019974
TWIN OAKS REHABILITATION AND HEALTHCARE CENTER,015211,857 CRAWFORD LANE,MOBILE,Mobile,92,2,16,11,93,71,7,0,30.716861,-88.073534
MCGUFFEY HEALTH & REHABILITATION CENTER,015202,2301 RAINBOW DRIVE,GADSDEN,Etowah,25,28,40,1,141,23,72,0,33.970964,-86.01993
CROWNE HEALTH CARE OF EUFAULA,015199,430 RIVERS AVENUE,EUFAULA,Barbour,118,27,37,11,128,53,28,0,31.890289,-85.158103
LAFAYETTE EXTENDED CARE,015197,805 HOSPITAL STREET SOUTHWEST,LAFAYETTE,Chambers,1,1,9,1,54,3,1,0,32.884336,-85.412365
BARON HOUSE OF HUEYTOWN,015404,190 BROOKLANE DRIVE,HUEYTOWN,Jefferson,13,0,23,12,29,26,23,0,33.446755,-86.979029
FALKVILLE HEALTH CARE CENTER,015136,10 WEST 3RD STREET  PO BOX 409,FALKVILLE,Morgan,70,21,16,10,79,35,25,0,34.368669,-86.910173
EASTVIEW REHABILITATION & HEALTHCARE CENTER,015014,7755 FOURTH AVENUE SOUTH,BIRMINGHAM,Jefferson,31,6,6,0,68,35,1,0,33.559483,-86.722451
WIREGRASS REHABILITATION CENTER & NURSING HOME,015150,1200 MAPLE AVENUE WEST,GENEVA,Geneva,33,4,25,11,73,49,33,0,31.048063000000003,-85.890837
REGENCY HEALTH CARE AND REHABILITATION CENTER,015372,"2061 POOLE DRIVE, NW",HUNTSVILLE,Madison,2,4,3,0,70,3,2,0,34.761811,-86.595342
"NORTHWAY HEALTH AND REHABILITATION, LLC",015047,1424 NORTH 25TH STREET,BIRMINGHAM,Jefferson,10,5,12,0,103,12,3,0,33.533253,-86.809226
CHERRY HILL REHABILITATION & HEALTHCARE CENTER,015445,1250 JEFF GERMANY PARKWAY,BIRMINGHAM,Jefferson,35,2,5,0,101,24,0,0,33.560549,-86.868957
LIGHTHOUSE REHABILITATION & HEALTHCARE CENTER,015413,2911 EARL GOODWIN PARKWAY,SELMA,Dallas,23,13,8,3,59,21,6,0,32.439932,-87.014543
"PRATTVILLE HEALTH AND REHABILITATION, LLC",015065,601 JASMINE TRAIL,PRATTVILLE,Autauga,24,11,34,2,118,36,16,0,32.480579,-86.428676
DIVERSICARE OF ONEONTA,015159,215 VALLEY ROAD,ONEONTA,Blount,33,1,16,0,107,52,7,1,33.951988,-86.466169
ALICEVILLE MANOR NURSING HOME,015137,703 17TH STREET NORTHWEST,ALICEVILLE,Pickens,39,27,11,3,71,31,27,0,33.134382,-88.16865
BIBB MED CENTER NURSING HOME,015215,208 PIERSON AVE,CENTREVILLE,Bibb,100,8,30,15,97,42,0,0,32.951101,-87.147865
ANDALUSIA MANOR,015416,670 MOORE RD,ANDALUSIA,Covington,60,24,22,9,89,54,27,0,31.282418999999997,-86.497781
SOUTHERN SPRINGS HEALTHCARE FACILITY,015171,745 SOUTHERN SPRINGS ROAD,UNION SPRINGS,Bullock,60,42,20,10,87,47,6,0,32.140365,-85.689097
BROOKDALE UNIVERSITY PARK SNF (AL),015423,501 UNIVERSITY PARK DRIVE,BIRMINGHAM,Jefferson,6,2,28,0,51,12,15,0,33.457706,-86.799149
WINDSOR HOUSE,015397,4411 MCALLISTER DRIVE,HUNTSVILLE,Madison,28,0,8,0,98,39,1,0,34.71745,-86.630382
"OZARK HEALTH AND REHABILITATION, LLC",015208,312 BRYAN DRIVE,OZARK,Dale,81,7,46,21,123,74,5,0,31.472283,-85.633872
"ASPIRE PHYSICAL RECOVERY CENTER AT HOOVER, LLC",015464,575 SOUTHLAND DRIVE,HOOVER,Jefferson,10,17,26,0,92,15,25,0,33.410061,-86.81002100000002
PARK PLACE,015084,100 PARK PLACE,SELMA,Dallas,48,0,12,12,82,52,1,0,32.426488,-87.053552
CANTERBURY HEALTH CARE FACILITY,015382,1720 KNOWLES ROAD,PHENIX CITY,Russell,22,0,15,5,103,23,0,0,32.447315,-85.019552
CULLMAN HEALTH CARE CENTER,015048,1607 MAIN AVE NE,CULLMAN,Cullman,0,0,7,0,75,6,101,0,34.192058,-86.847418
"FLORENCE NURSING AND REHABILITATION CTR,  LLC",015169,2107 CLOYD BLVD,FLORENCE,Lauderdale,68,32,68,22,117,60,39,0,34.836381,-87.649766
ALLEN HEALTH AND REHABILITATION,015098,735 SOUTH WASHINGTON AVENUE,MOBILE,Mobile,49,26,24,18,66,51,6,1,30.672585999999995,-88.052128
"LINEVILLE HEALTH AND REHABILITATION, LLC",015142,88073 HIGHWAY 9,LINEVILLE,Clay,60,46,26,12,77,41,32,0,33.304426,-85.758194
"PALM GARDENS HEALTH AND REHABILITATION, LLC",015403,3104 DAUPHIN SQUARE CONNECTOR,MOBILE,Mobile,42,6,29,7,68,34,6,0,30.692507000000003,-88.118942
HEALTH CARE INC,015407,P O BOX 130,ASHVILLE,St. Clair,0,0,4,0,47,4,5,0,0,0
MOBILE NURSING AND REHABILITATION CENTER,015379,7020 BRUNS DRIVE,MOBILE,Mobile,41,17,6,3,90,30,11,0,30.657825000000003,-88.204855
"CAREGIVERS OF PLEASANT GROVE, INC",015044,700 FIRST AVENUE,PLEASANT GROVE,Jefferson,35,21,15,11,47,18,3,0,33.487763,-86.95626
"CHAPMAN HEALTHCARE CENTER, INC",015221,3701 DADEVILLE ROAD,ALEXANDER CITY,Tallapoosa,9,0,22,1,148,7,0,0,32.909983,-85.919439
FAIRVIEW AT REDSTONE VILLAGE,015454,12000 TURNMEYER DRIVE,HUNTSVILLE,Madison,9,2,9,0,46,12,17,0,34.607304,-86.559341
PARKWOOD HEALTH CARE FACILITY,015179,3301 STADIUM DRIVE,PHENIX CITY,Russell,2,3,28,0,69,14,16,0,32.490965,-85.018939
CLEBURNE COUNTY NURSING HOME,015053,122 BROCKFORD ROAD,HEFLIN,Cleburne,,,,,,,,,33.63607300000001,-85.589035
DIVERSICARE OF WINFIELD,015376,144 COUNTY HWY 14,WINFIELD,Marion,72,17,30,15,101,42,19,1,33.937692,-87.820898
ROANOKE REHABILITATION & HEALTHCARE CENTER,015424,680 SEYMOUR DRIVE,ROANOKE,Randolph,42,22,6,6,48,35,10,0,33.141878,-85.383506
"OAK KNOLL HEALTH AND REHABILITATION, LLC",015117,824 SIXTH AVENUE WEST,BIRMINGHAM,Jefferson,73,25,13,1,75,42,8,0,33.510568,-86.850394
"MOUNDVILLE HEALTH AND REHABILITATION, LLC",015187,THIRD AVENUE    P O BOX 607,MOUNDVILLE,Hale,0,7,22,0,57,10,15,0,0,0
WASHINGTON COUNTY NURSING HOME,015123,14600 ST STEPHENS AVENUE,CHATOM,Washington,26,21,11,4,77,29,16,1,31.460296000000003,-88.235291
OAKWOOD-NORTH BALDWIN'S CENTER FOR LIVING,015417,2010 MEDICAL CENTER DRIVE,BAY MINETTE,Baldwin,46,19,13,4,60,34,38,0,30.905552,-87.786446
NORTHSIDE HEALTH CARE,015223,700 HUTCHINS AVENUE,GADSDEN,Etowah,34,4,4,1,89,41,8,0,34.042751,-85.954822
COLONIAL HAVEN CARE & REHABILITATION CENTER,015396,616 ARMORY STREET,GREENSBORO,Hale,44,0,14,11,65,56,0,1,32.699648,-87.585068
CAMDEN NURSING FACILITY INC.,015374,210 PONDEROSA DRIVE,CAMDEN,Wilcox,32,4,11,6,49,40,13,0,0,0
MADISON MANOR NURSING HOME,015214,3891 SULLIVAN ST,MADISON,Madison,0,7,12,0,70,6,21,0,34.683955,-86.751669
LYNWOOD NURSING HOME,015434,4164 HALLS MILL ROAD,MOBILE,Mobile,55,0,20,18,104,42,10,0,30.626021,-88.13685
"RIDGEVIEW HEALTH SERVICES, INC",015155,"907 11TH STREET, NE",JASPER,Walker,112,55,52,20,93,110,76,0,33.859719,-87.26335
SANCTUARY AT THE WOODLANDS,015471,1910 CHEROKEE  AVENUE SW,CULLMAN,Cullman,9,0,12,4,28,15,11,0,34.150254,-86.844082
TRAYLOR RETIREMENT COMMUNITY,015126,1235 YANCEY STREET  P O BOX 467,ROANOKE,Randolph,58,0,23,10,78,33,8,0,33.160179,-85.377349
CAPITOL HILL HEALTHCARE CENTER,015390,520 SOUTH HULL STREET,MONTGOMERY,Montgomery,64,33,40,16,202,39,28,1,32.371427,-86.303503
ASPIRE PHYSICAL RECOVERY CENTER OF WEST ALABAMA,015465,2400 HOSPITAL DRIVE,NORTHPORT,Tuscaloosa,3,0,7,0,59,11,12,0,33.231822,-87.569485
LAKE VILLAGE REHABILITATION AND CARE CENTER,045184,903 BORGOGNONI DRIVE,LAKE VILLAGE,Chicot,38,12,9,2,46,29,3,0,33.315317,-91.289924
WALNUT RIDGE NURSING AND REHABILITATION CENTER,045151,1500 WEST MAIN STREET,WALNUT RIDGE,Lawrence,52,12,18,6,58,30,0,0,36.074893,-90.971918
SPRINGDALE HEALTH AND REHABILITATION CENTER,045167,102 NORTH GUTENSOHN,SPRINGDALE,Washington,12,21,33,12,78,31,20,0,36.186187,-94.161389
SILVER OAKS HEALTH AND REHABILITATION,045173,1875 OLD WIRE ROAD,CAMDEN,Ouachita,2,21,11,1,81,8,2,0,33.55094100000001,-92.862455
BROOKRIDGE COVE REHABILITATION AND CARE  CENTER,045147,1000 BROOKRIDGE LANE,MORRILTON,Conway,0,0,18,0,61,2,3,0,35.167991,-92.733359
VALLEY SPRINGS REHABILITATION AND HEALTH CENTER,045138,228 POINTER TRAIL WEST,VAN BUREN,Crawford,1,0,11,0,87,5,2,0,35.459182,-94.362707
SOMERSET SENIOR LIVING AT HARRISON,045197,115 ORENDORFF AVENUE,HARRISON,Boone,55,0,25,16,49,49,1,0,36.248859,-93.121181
JONESBORO WELLNESS LLC,045134,1705 LATOURETTE DRIVE,JONESBORO,Craighead,42,0,37,6,87,52,11,0,35.80113,-90.68648
WEST MEMPHIS HEALTH AND REHAB,045217,610 SOUTH AVALON ST,WEST MEMPHIS,Crittenden,83,24,21,15,40,71,8,0,35.137995,-90.193613
CHAPEL WOODS HEALTH AND REHABILITATION,045201,1440 EAST CHURCH,WARREN,Bradley,1,48,13,0,79,11,38,0,33.607913,-92.034829
INDIAN ROCK VILLAGE HEALTH CENTER,045153,265 DAVE CREEK PARKWAY,FAIRFIELD BAY,Van Buren,0,0,5,0,28,0,0,0,35.617374,-92.263021
GENERAL BAPTIST NURSING HOME OF PIGGOTT,045178,450 S 9TH AVE,PIGGOTT,Clay,9,4,13,2,35,11,4,0,36.380542,-90.19841300000002
"JOHNSON COUNTY HEALTH AND REHAB, LLC",045168,1451 EAST POPLAR STREET,CLARKSVILLE,Johnson,3,4,17,0,104,6,18,0,35.464252,-93.438865
"THE WATERS OF MOUNTAIN VIEW, LLC",045146,706 OAK GROVE ST,MOUNTAIN VIEW,Stone,114,12,57,30,66,51,14,0,35.869237,-92.107819
SOMERSET SENIOR LIVING AT SEVEN SPRINGS,045158,1040 WEDDING FORD ROAD,HEBER SPRINGS,Cleburne,0,0,28,0,58,2,12,0,35.502206,-92.033955
FAYETTEVILLE HEALTH AND REHABILITATION CENTER,045220,3100 OLD MISSOURI RD,FAYETTEVILLE,Washington,78,3,40,13,90,32,4,0,36.108229,-94.13334
ASH FLAT HEALTHCARE AND REHABILITATION CENTER,045155,66 OZBIRN LANE,ASH FLAT,Sharp,41,7,24,5,63,22,10,0,36.229743,-91.609375
SEARCY HEALTHCARE LLC,045140,1205 SKYLINE DRIVE,SEARCY,White,25,0,23,1,100,38,4,0,35.245533,-91.75782300000002
THE GREEN HOUSE COTTAGES OF BELLE MEADE,045170,2200 CHATEAU BOULEVARD,PARAGOULD,Greene,18,1,24,1,118,26,6,0,36.043874,-90.515341
"THE WATERS OF ROGERS, LLC",045212,1513 SOUTH DIXIELAND RD,ROGERS,Benton,,,,,,,,,36.320524,-94.143954
SOMERSET SENIOR LIVING AT PINE HILLS,045189,900 MAGNOLIA RD,CAMDEN,Ouachita,17,12,12,3,61,8,2,0,33.571818,-92.844676
CAVE CITY NURSING HOME INC,045148,442 TAYLOR CIRCLE,CAVE CITY,Sharp,1,4,10,0,63,3,27,0,35.948016,-91.551406
DERMOTT CITY NURSING HOME,045172,702 WEST GAINES ST,DERMOTT,Chicot,41,5,52,41,31,22,8,0,33.519137,-91.444469
"COURTYARD REHABILITATION AND HEALTH CENTER, LLC",045182,2415 W HILLSBORO,EL DORADO,Union,44,4,15,6,62,32,2,0,33.207792,-92.697943
"CRESTPARK DEWITT, LLC",045177,1325 LIBERTY DRIVE,DE WITT,Arkansas,28,0,9,5,38,26,2,0,34.274759,-91.349773
BUTTERFIELD TRAIL VILLAGE,045125,1923 EAST JOYCE BLVD,FAYETTEVILLE,Washington,14,4,4,1,44,11,11,0,36.120087,-94.13287
"CRESTPARK WYNNE, LLC",045166,400 ARKANSAS STREET,WYNNE,Cross,2,1,6,0,47,7,8,0,35.924401,-89.909902
TWIN RIVERS HEALTH AND REHABILITATION,045216,3021 TWIN RIVERS DRIVE,ARKADELPHIA,Clark,20,10,4,3,72,18,0,0,34.122599,-93.087238
ARKANSAS NURSING AND REHABILITATION CENTER,045211,2107 DUDLEY STREET,TEXARKANA,Miller,9,0,14,1,98,15,2,0,33.41984,-94.020553
BATESVILLE HEALTHCARE LLC,045203,1975 WHITE DRIVE,BATESVILLE,Independence,98,1,86,75,61,63,2,0,35.791288,-91.607537
"LAKEWOOD HEALTH AND REHAB, LLC",045202,2323 MCCAIN BOULEVARD,NORTH LITTLE ROCK,Pulaski,72,1,0,0,44,63,27,0,34.797914,-92.240514
THE CROSSING AT RIVERSIDE HEALTH AND REHABILITATIO,045209,2500 EAST MOORE AVENUE,SEARCY,White,32,82,20,5,103,18,18,0,35.253706,-91.708904
"CONCORDIA NURSING & REHAB, LLC",045143,7 PROFESSIONAL DRIVE,BELLA VISTA,Benton,1,0,12,0,37,4,1,0,36.474911,-94.25299200000002
HEARTLAND REHABILITATION AND CARE CENTER,045199,19701 INTERSTATE 30,BENTON,Saline,4,3,32,0,82,10,1,0,34.598917,-92.55144
HOT SPRINGS NURSING AND REHABILITATION- A WATERS C,045098,552 GOLF LINKS ROAD,HOT SPRINGS,Garland,28,32,30,25,87,91,12,0,34.472615,-93.04697
GASSVILLE THERAPY AND LIVING,045218,203 COTTER ROAD,GASSVILLE,Baxter,37,8,30,10,57,12,18,0,36.280682,-92.499243
HUDSON MEMORIAL NURSING HOME,045214,700 N. COLLEGE AVENUE,EL DORADO,Union,41,13,32,23,50,31,5,0,33.218523,-92.674105
SOMERSET SENIOR LIVING AT CANYON SPRINGS,045142,1401 PARK AVENUE,HOT SPRINGS,Garland,16,2,7,3,43,15,0,0,34.533296,-93.037342
THE WOODS OF MONTICELLO HEALTH AND REHABILITATION,045176,1194 N CHESTER ST,MONTICELLO,Drew,0,2,11,0,62,5,3,0,33.645199,-91.79136
BENTLEY REHABILITATION AND HEALTH CENTER,045194,1100 EAST 36TH STREET,TEXARKANA,Miller,1,3,8,2,47,12,2,0,33.457396,-94.03087100000002
RIVER RIDGE REHABILITATION AND CARE CENTER,045157,1100 EAST MARTIN DRIVE,WYNNE,Cross,35,1,35,8,50,21,6,0,35.216024000000004,-90.78129
"CRESTPARK FORREST CITY, LLC",045219,500 KITTLE RD,FORREST CITY,St. Francis,0,0,0,0,50,4,0,0,35.016898,-90.772228
"SALEM PLACE NURSING AND REHABILITATION CENTER, INC",045183,2401 CHRISTINA LANE,CONWAY,Faulkner,,,,,,,,,35.068405,-92.461642
MAGNOLIA HEALTHCARE LLC,045135,2642 NORTH DUDNEY ROAD,MAGNOLIA,Columbia,44,9,30,13,62,30,11,0,33.296281,-93.210542
ROGERS HEALTH AND REHABILITATION CENTER,045070,1149 W NEW HOPE RD,ROGERS,Benton,10,9,8,0,78,8,2,0,36.311903,-94.133588
THE GREEN HOUSE COTTAGES OF WENTWORTH PLACE,045187,26 WARNOCK SPRINGS ROAD,MAGNOLIA,Columbia,13,9,16,0,97,15,6,0,33.279835,-93.211869
RIVER CHASE REHABILITATION AND CARE CENTER,045149,# 12 HOSPITAL DRIVE,MORRILTON,Conway,2,1,18,0,39,6,17,0,0,0
"CABOT HEALTH AND REHAB, LLC",045208,200 NORTHPORT DRIVE,CABOT,Lonoke,50,9,23,14,46,42,19,0,34.98119,-92.044149
"NASHVILLE WELLNESS, LLC",045180,1407 NORTH MAIN STREET,NASHVILLE,Howard,3,2,8,1,61,11,0,0,33.958838,-93.846333
GOOD SAMARITAN SOCIETY - HOT SPRINGS VILLAGE,045191,121 CORTEZ RD,HOT SPRINGS VILLAGE,Garland,1,0,0,0,31,10,10,0,34.671545,-92.963763
SOUTHRIDGE VILLAGE NURSING AND REHAB,045196,400 SOUTHRIDGE PARKWAY,HEBER SPRINGS,Cleburne,68,3,32,13,66,51,12,0,35.49248,-91.997992
OUACHITA NURSING AND REHABILITATION CENTER,045207,1411 COUNTRY CLUB ROAD,CAMDEN,Ouachita,7,2,14,3,64,6,1,0,33.575447,-92.85617700000002
SOMERSET SENIOR LIVING AT CROSSETT,045190,1101 WATERWELL RD,CROSSETT,Ashley,0,0,1,1,42,5,2,0,33.111452,-91.947906
"WEST MEMPHIS WELLNESS, LLC",045195,800 WEST BROADWAY,WEST MEMPHIS,Crittenden,68,15,32,14,63,66,37,0,35.146041,-90.201694
SOMERSET SENIOR LIVING AT MCGEHEE,045139,700 MARK DRIVE,MCGEHEE,Desha,0,1,0,0,40,3,0,0,33.631156,-91.406543
SOMERSET SENIOR LIVING AT MOUNT VISTA,045192,202 TIMS AVENUE,HARRISON,Boone,60,14,21,7,63,33,13,0,36.24727,-93.12052
ADVANCED HEALTH AND REHAB OF UNION COUNTY,045275,1700 EAST SHORT HILLSBORO,EL DORADO,Union,10,308,5,2,53,16,59,0,33.20703,-92.64313
GREENBRIER NURSING AND REHABILITATION CENTER,045381,#16 WILSON FARM ROAD,GREENBRIER,Faulkner,0,1,1,0,70,1,3,0,35.222545,-92.385007
"STONEGATE VILLA HEALTH AND REHABILITATION, LLC",045437,118 JERRY SELBY DRIVE,CROSSETT,Ashley,0,0,11,0,55,1,4,0,33.139932,-91.939036
WINDCREST HEALTH AND REHAB INC,045367,2455 LOWELL ROAD,SPRINGDALE,Washington,0,0,1,0,58,13,0,1,36.206119,-94.133472
NORTH HILLS LIFE CARE AND REHAB,045398,27 E APPLEBY ROAD,FAYETTEVILLE,Washington,25,24,28,5,69,25,31,0,36.107851,-94.155228
ST MICHAEL'S HEALTHCARE,045323,1311 NORTH PECAN ST,NEWPORT,Jackson,7,1,13,1,62,17,4,0,35.617883,-91.264446
BELLE VIEW ESTATES REHABILITATION AND CARE CENTER,045239,1052 OLD WARREN ROAD,MONTICELLO,Drew,1,2,14,0,62,8,2,0,33.613539,-91.813489
SPRING CREEK HEALTH & REHAB,045392,804 N 2ND ST,CABOT,Lonoke,2,79,5,0,78,4,1,0,34.980196,-92.01083900000002
OZARK NURSING HOME INC,045386,600 NORTH 12TH ST,OZARK,Franklin,48,36,0,0,83,49,61,0,35.494031,-93.83664400000002
"THE WATERS OF STAMPS, LLC",045232,826 NORTH STREET,STAMPS,Lafayette,23,3,2,2,39,9,0,0,33.369119,-93.489996
THE GREEN HOUSE COTTAGES OF SOUTHERN HILLS,045377,701 SOUTH MAIN STREET,RISON,Cleveland,26,5,22,10,69,39,24,0,33.95499,-92.188665
"SHILOH NURSING AND REHAB, LLC",045427,1092 WEST STULTZ ROAD,SPRINGDALE,Washington,10,6,13,1,59,20,1,0,0,0
"HICKORY HEIGHTS HEALTH AND REHAB, LLC",045455,#3 CHENAL HEIGHTS DRIVE,LITTLE ROCK,Pulaski,13,5,3,0,82,20,10,0,34.777588,-92.451199
"INNISFREE HEALTH AND REHAB, LLC",045302,301 SOUTH 24TH STREET,ROGERS,Benton,1,0,0,0,56,7,2,0,36.331709000000004,-94.152405
ARKANSAS STATE VETERANS HOME AT NORTH LITTLE ROCK,045462,2401 JOHN ASHLEY DRIVE,NORTH LITTLE ROCK,Pulaski,7,0,0,0,92,16,6,0,34.780813,-92.289742
ARKANSAS CONVALESCENT CENTER,045277,6301 SOUTH  HAZEL STREET,PINE BLUFF,Jefferson,70,29,20,14,60,32,7,0,34.163006,-92.024056
TRINITY VILLAGE MEDICAL CENTER,045438,6400 TRINITY DRIVE,PINE BLUFF,Jefferson,3,0,9,0,52,11,6,0,34.164598,-92.028617
THE VILLAGES OF GENERAL BAPTIST HEALTH CARE  EAST,045311,6811 SOUTH HAZEL STREET,PINE BLUFF,Jefferson,20,0,6,6,4,3,0,0,34.155483,-92.023992
"THE WATERS OF WEST DIXON, LLC",045446,2821 W DIXON RD,LITTLE ROCK,Pulaski,21,5,0,0,72,30,3,0,34.658755,-92.286944
MOUNTAIN MEADOWS HEALTH AND REHABILITATION,045369,1680 BATESVILLE BOULEVARD,BATESVILLE,Independence,76,7,25,17,66,34,5,0,35.708146,-91.630228
COURTYARD GARDENS HEALTH AND REHABILITATION CENTER,045350,2701 TWIN RIVERS DRIVE,ARKADELPHIA,Clark,2,0,19,1,78,3,5,0,34.126936,-93.082238
PERRY COUNTY NURSING AND REHABILITATION CENTER,045246,1321 SCENIC DRIVE,PERRYVILLE,Perry,1,2,0,0,53,3,2,0,35.007919,-92.81216900000001
COTTAGE LANE HEALTH AND REHAB,045458,800 BROOKSIDE DRIVE,LITTLE ROCK,Pulaski,37,10,17,11,66,39,37,0,34.758904,-92.373136
THE VILLAGE AT VALLEY RANCH,045431,6411 VALLEY RANCH DRIVE,LITTLE ROCK,Pulaski,35,0,12,4,82,30,3,0,34.813825,-92.474726
GARDNER NURSING AND REHABILITATION,045269,702 NO DREW ST,STAR CITY,Lincoln,0,0,3,0,50,6,10,0,33.949903,-91.844565
EAST POINT HEALTH AND REHAB,045469,505 E VICTORY ST,STAR CITY,Lincoln,0,0,1,0,49,1,0,0,33.937486,-91.837653
RANDOLPH COUNTY NURSING HOME,045443,500 CAMP ROAD,POCAHONTAS,Randolph,85,124,34,17,105,55,96,0,0,0
HAPPY VALLEY NURSING & REHABILITATION,045459,955 DIVISION STREET,MALVERN,Hot Spring,1,0,1,0,36,1,0,0,34.377247,-92.814753
ALCOA PINES HEALTH AND REHABILITATION,045408,3300 ALCOA ROAD,BENTON,Saline,75,17,28,9,58,28,1,0,34.576272,-92.547047
NURSING AND REHABILITATION CENTER AT GOOD SHEPHERD,045343,3001 ALDERSGATE ROAD,LITTLE ROCK,Pulaski,6,0,16,1,98,18,1,0,34.727618,-92.389225
"BRIARWOOD NURSING AND REHABILITATION CENTER,INC",045387,516 SO RODNEY PARHAM RD,LITTLE ROCK,Pulaski,78,0,29,10,79,36,1,0,34.748841,-92.363337
"CRESTPARK HELENA, LLC",045221,116 NOVEMBER DRIVE,HELENA,Phillips,14,3,12,3,45,19,2,0,34.541173,-90.62052800000001
MANILA HEALTHCARE CENTER,045297,814 NORTH DAVIS ST,MANILA,Mississippi,0,3,10,0,60,6,4,0,35.890053,-90.15931
ALLAY HEALTH AND REHAB,045288,3115 BOWMAN ROAD,LITTLE ROCK,Pulaski,1,0,5,4,28,4,0,0,0,0
CAVALIER HEALTHCARE OF ENGLAND,045442,400 STUTTGART HIGHWAY,ENGLAND,Lonoke,27,0,5,3,44,35,0,0,34.546373,-91.952502
ENCORE HEALTHCARE AND REHABILITATION,045393,1820 WEST MOLINE STREET,MALVERN,Hot Spring,49,11,11,6,70,24,13,2,34.376529,-92.834352
"JAMESTOWN NURSING AND REHAB, LLC",045435,2001 HAMPTON PLACE,ROGERS,Benton,60,6,8,1,108,39,28,0,36.310253,-94.167558
LAWRENCE HALL HEALTH & REHABILITATION,045452,1051 WEST FREE STREET,WALNUT RIDGE,Lawrence,105,43,22,13,104,29,28,0,36.072219,-90.966734
SOUTHERN TRACE REHABILITATION AND CARE CENTER,045305,22515 I 30,BRYANT,Saline,48,16,24,1,97,22,0,0,34.615714,-92.503833
RIDGECREST HEALTH AND REHABILITATION,045327,5504 E JOHNSON AVE,JONESBORO,Craighead,43,57,21,8,98,32,4,0,35.86419500000001,-90.62549
"COLONEL GLENN HEALTH AND REHAB, LLC",045460,13700 DAVID O DODD ROAD,LITTLE ROCK,Pulaski,5,0,11,0,84,13,1,0,34.708313,-92.410304
OAK MANOR NURSING AND REHABILITATION CENTER INC,045301,150 MORTON AVENUE,BOONEVILLE,Logan,1,6,18,0,56,2,10,0,35.138945,-93.93589
LITTLE RIVER NURSING & REHAB,045244,162 HWY 32-2A,ASHDOWN,Little River,39,12,42,17,55,37,10,2,33.659057,-94.111987
"MITCHELL'S NURSING HOME, INC",045454,501 W 10TH,DANVILLE,Yell,73,23,13,12,85,58,22,2,35.052314,-93.397618
THE GREEN HOUSE COTTAGES OF POPLAR GROVE,045466,7801 KANIS RD,LITTLE ROCK,Pulaski,9,123,6,0,111,9,21,0,34.740897,-92.361614
RUSSELLVILLE NURSING AND REHABILITATION CENTER,045340,215 SOUTH PORTLAND AVENUE,RUSSELLVILLE,Pope,100,17,3,0,73,12,1,0,35.291515,-93.170899
BRIGHTON RIDGE,045242,235 HUNTSVILLE ROAD,EUREKA SPRINGS,Carroll,0,0,2,0,29,3,3,0,36.381056,-93.741883
EVERGREEN LIVING CENTER AT STAGECOACH,045457,6907 HIGHWAY 5 NORTH,BRYANT,Saline,0,14,13,0,78,2,13,0,34.633807,-92.482591
"THE WATERS OF FORT SMITH, LLC",045345,5301 WHEELER AVENUE,FORT SMITH,Sebastian,47,0,18,7,105,32,0,0,35.334272,-94.42729700000001
"DARDANELLE NURSING AND REHABILITATION CENTER,INC",045290,2199 STATE HWY 7 NORTH,DARDANELLE,Yell,1,5,11,0,93,15,0,1,35.205014,-93.154794
PLEASANT MANOR NURSING & REHAB,045227,950 HOMESTEAD,ASHDOWN,Little River,63,2,30,21,56,41,2,0,33.665135,-94.116603
"THE WATERS OF NEWPORT, LLC",045334,326 LINDLEY LANE,NEWPORT,Jackson,6,0,3,2,75,12,1,0,35.634201,-91.261075
ENCORE HEALTHCARE AND REHABILITATION OF WEST LITTL,045390,12111 HINSON RD,LITTLE ROCK,Pulaski,42,10,45,6,71,16,8,0,34.772645000000004,-92.408378
"GLENWOOD HEALTH AND REHABILITATION, LLC",045403,615 MOUNTAIN VIEW ROAD,GLENWOOD,Pike,3,0,9,1,44,9,0,0,34.332334,-93.540691
CHAPEL RIDGE HEALTH AND REHAB,045364,4623 ROGERS AVE,FORT SMITH,Sebastian,52,8,34,9,65,29,21,0,35.367743,-94.380337
SUMMIT HEALTH & REHAB CENTER,045411,506 NORTH LONG AVENUE,TAYLOR,Columbia,5,1,6,2,35,5,0,0,33.104767,-93.464418
WOODBRIAR NURSING HOME,045384,204 CATHERINE ST,HARRISBURG,Poinsett,56,10,17,14,48,42,1,0,35.571489,-90.723368
LAKESIDE HEALTH AND REHAB,045315,1207 WILLOW RUN ROAD,LAKE CITY,Craighead,39,0,20,0,62,17,0,0,35.818597,-90.442914
"CRESTPARK MARIANNA, L L C",045449,700 WEST CHESTNUT,MARIANNA,Lee,0,0,9,0,57,6,0,0,34.774679000000006,-90.778121
HILLCREST HOME,045441,1111 MAPLEWOOD RD,HARRISON,Boone,15,31,19,0,91,24,63,0,36.241516,-93.103821
THE VILLAGES OF GENERAL BAPTIST HEALTH CARE WEST,045379,6810 SOUTH HAZEL STREET,PINE BLUFF,Jefferson,26,11,5,3,102,21,2,0,34.15534,-92.02399
PIONEER THERAPY AND LIVING,045322,1506 EAST MAIN STREET,MELBOURNE,Izard,48,0,8,1,75,27,3,0,36.05917,-91.880306
OZARK HEALTH NURSING AND REHAB  CENTER,045414,2500 HIGHWAY 65 SOUTH,CLINTON,Van Buren,1,1,0,0,73,4,0,0,35.559375,-92.449913
HERITAGE SQUARE HEALTHCARE CENTER,045366,710 NO RUDDLE ROAD,BLYTHEVILLE,Mississippi,39,15,87,9,68,43,19,0,35.92116,-89.891933
SOUTHERN PINES HEALTH AND REHAB,045470,700 MANOR RD,PRESCOTT,Nevada,58,0,12,12,44,23,5,0,33.787601,-93.380341
VILLAGE SPRINGS HEALTH AND REHABILITATION,045254,1208 NORTH HIGHWAY 7,HOT SPRINGS,Garland,22,10,8,6,86,11,2,0,34.593809,-93.004884
"CRESTPARK STUTTGART, LLC",045303,707 WEST 20TH STREET,STUTTGART,Arkansas,40,0,13,1,57,23,4,0,34.483162,-91.560024
WILLOWBEND HEALTHCARE AND REHABILITATION,045412,830 CANAL ST,MARION,Crittenden,48,3,20,7,106,31,11,0,0,0
PINK BUD HOME FOR THE GOLDEN YEARS,045456,400 SO COKER,GREENWOOD,Sebastian,59,39,25,12,60,51,25,0,0,0
HIRAM SHADDOX HEALTH AND REHAB,045471,1100 PINETREE LANE,MOUNTAIN HOME,Baxter,2,0,6,0,51,4,0,0,36.329391,-92.39696
"HIGHLAND COURT, A REHABILITATION AND RESIDENT CARE",045353,942 NORTH HIGHWAY 65,MARSHALL,Searcy,19,4,24,1,46,18,0,0,35.908013,-92.66092200000001
"BELVEDERE NURSING AND REHABILITATION CENTER, LLC",045463,2600 PARK AVE,HOT SPRINGS,Garland,1,0,2,0,72,7,0,0,34.556046,-93.008525
"THE WATERS OF NORTH LITTLE ROCK, LLC",045385,2501 JOHN ASHLEY DRIVE,NORTH LITTLE ROCK,Pulaski,68,2,5,5,96,29,0,0,34.779371,-92.289773
NEWTON COUNTY NURSING HOME,04E090,610 EAST COURT STREET,JASPER,Newton,51,18,20,16,38,36,17,0,36.012862,-93.179438
EAGLECREST NURSING AND REHAB,045352,916 HIGHWAY 62/412,ASH FLAT,Sharp,47,0,9,0,81,20,0,0,36.238518000000006,-91.596159
BARNES HEALTHCARE,045314,1010 BARNES STREET,LONOKE,Lonoke,0,0,27,0,55,65,16,0,34.793023,-91.895455
COVINGTON COURT HEALTH AND REHABILITATION CENTER,045363,4500 OLD GREENWOOD RD,FORT SMITH,Sebastian,94,19,25,9,100,46,7,0,35.340004,-94.392259
HIGHLAND HEALTHCARE AND REHABILITATION CENTER,045402,670 ROGERS ROAD,BELLA VISTA,Benton,37,5,15,8,42,32,0,0,36.452896,-94.295013
OAKDALE NURSING FACILITY,045418,101 CYNTHIA STREET,JUDSONIA,White,0,0,21,0,95,8,0,0,35.26867,-91.665225
"ST JOHNS PLACE OF ARKANSAS, LLC",045396,1400 HWY 79/167 BYPASS,FORDYCE,Dallas,36,1,20,4,45,19,2,0,33.823702,-92.431118
WOODRUFF COUNTY HEALTH CENTER,045222,139 WEST HIGHWAY 64,MCCRORY,Woodruff,5,0,20,0,77,5,2,0,35.269183000000005,-91.204114
BEAR CREEK HEALTHCARE LLC,045287,322 WEST COLLIN RAYE DRIVE,DE QUEEN,Sevier,0,0,3,0,41,2,0,0,34.045611,-94.341058
DIERKS HEALTH & REHAB,045346,402 S ARKANSAS AVENUE,DIERKS,Howard,,,,,,,,,34.114536,-94.019505
THE LAKES AT MAUMELLE HEALTH AND REHABILITATION,045422,103 ALEXANDRIA DRIVE,MAUMELLE,Pulaski,43,15,26,12,41,15,2,0,34.875836,-92.394485
ARKANSAS VETERANS HOME AT FAYETTEVILLE,045417,1179 NORTH COLLEGE AVENUE,FAYETTEVILLE,Washington,15,6,17,4,70,21,12,0,36.078359,-94.157008
LONGMEADOW NURSING CENTER - CAMDEN,045348,365 ALPHA STREET,CAMDEN,Ouachita,0,0,2,0,21,0,0,0,33.585439,-92.885101
AMBERWOOD HEALTH AND REHABILITATION,045464,6420 ALCOA ROAD,BENTON,Saline,1,75,7,0,87,11,16,0,34.594581000000005,-92.53468
SOMERSET SENIOR LIVING AT PREMIER,045357,3600 RICHARDS ROAD,NORTH LITTLE ROCK,Pulaski,0,10,22,0,111,13,19,0,34.785488,-92.211692
"NASHVILLE NURSING AND REHAB, INC",045342,810 NORTH 8TH ST,NASHVILLE,Howard,27,0,9,1,41,16,1,0,33.952523,-93.855622
LAKEWOOD THERAPY AND LIVING CENTER,045404,260 LAKEPARK DRIVE,HOT SPRINGS,Garland,1,6,0,0,50,6,4,0,34.451381,-93.02924
VAN BUREN HEALTHCARE AND REHABILITATION CENTER,045268,1404 NORTH 28TH STREET,VAN BUREN,Crawford,5,32,20,1,95,8,18,0,35.454548,-94.32591500000001
SHERIDAN HEALTHCARE AND REHABILITATION CENTER,045256,113 SOUTH BRIARWOOD DRIVE,SHERIDAN,Grant,11,1,25,1,63,4,1,0,34.310931,-92.415163
WOODLAND HILLS HEALTHCARE AND REHABILITATION,045378,1320 WEST BRADEN STREET,JACKSONVILLE,Pulaski,59,6,31,21,50,51,14,0,34.872378,-92.124182
"GREYSTONE NURSING AND REHAB, LLC",045453,121 SPRING VALLEY ROAD,CABOT,Lonoke,1,3,17,0,65,17,3,0,35.018964,-92.0732
"CLA-CLIF NURSING AND REHAB CENTER, INC",045430,1214 NORTH MAIN,BRINKLEY,Monroe,0,0,9,0,44,5,0,0,34.903325,-91.197709
KATHERINE'S PLACE AT WEDINGTON,045434,4405 WEST PERSIMMON STREET,FAYETTEVILLE,Washington,9,0,15,0,101,6,1,0,36.071584,-94.223564
THE PINES NURSING AND REHABILITATION CENTER,045243,524 CARPENTER DAM ROAD,HOT SPRINGS,Garland,55,1,18,2,82,51,1,0,34.463665,-93.022773
TIMBERLANE HEALTH & REHABILITATION,045416,2002 TIMBERWOOD ROAD,EL DORADO,Union,36,51,20,8,75,27,23,0,33.204302,-92.690158
STELLA MANOR NURSING AND REHABILITATION CENTER,045247,400 NORTH VANCOUVER AVENUE,RUSSELLVILLE,Pope,4,0,0,0,73,12,0,0,35.286758,-93.152568
LEGACY HEALTH AND REHABILITATION CENTER,045267,3310 NORTH 50TH STREET,FORT SMITH,Sebastian,76,4,30,7,72,47,10,0,35.411354,-94.375853
PARIS HEALTH AND REHABILITATION CENTER,045300,1414 S ELM ST,PARIS,Logan,31,33,23,5,94,22,12,0,35.280984,-93.73011900000002
RICH MOUNTAIN NURSING AND REHABILITATION CENTER,045358,306 HORNBECK AVENUE,MENA,Polk,1,0,16,0,76,5,9,0,34.583109,-94.22859
"PRAIRIE GROVE HEALTH AND REHABILITATION, LLC",045409,621 SOUTH MOCK STREET,PRAIRIE GROVE,Washington,0,17,11,0,59,1,40,0,35.968084,-94.317827
TWIN LAKES THERAPY AND LIVING,045280,6152 HIGHWAY 202 EAST,FLIPPIN,Marion,6,6,3,0,67,6,2,0,36.283425,-92.611119
"CHAMBERS NURSING HOME CENTER, INC",045318,1001 EAST PARK STREET,CARLISLE,Lonoke,16,29,10,0,65,33,24,0,34.78131,-91.735315
ATKINS NURSING AND REHABILITATION CENTER,045339,605 NORTHWEST 7TH STREET,ATKINS,Pope,19,3,11,1,57,18,13,0,35.249232,-92.943537
WHITE RIVER HEALTHCARE,045401,1569 AR HIGHWAY 56,CALICO ROCK,Izard,1,3,11,0,53,5,1,0,36.13411,-92.127741
"LONOKE HEALTH AND REHAB CENTER, LLC",045289,1501 LINCOLN STREET,LONOKE,Lonoke,24,16,12,6,51,23,12,1,34.771714,-91.909268
GOSNELL HEALTH AND REHAB,045439,700 MOODY STREET,GOSNELL,Mississippi,55,16,30,11,52,26,7,0,35.963208,-89.973822
QUAPAW CARE AND REHABILITATION CENTER LLC,045338,138 BRIGHTON TERRACE,HOT SPRINGS,Garland,38,4,13,3,71,26,6,0,34.448651,-93.090098
ST ANDREWS HEALTHCARE,045313,3501 COLLEGE AVENUE,CONWAY,Faulkner,25,1,10,1,60,14,9,0,35.085426,-92.488422
DES ARC NURSING AND REHABILITATION CENTER,045236,2216 WEST MAIN STREET,DES ARC,Prairie,37,45,10,1,55,28,15,0,34.977335,-91.519958
QUAIL RUN HEALTH AND REHAB,045468,333 MELODY DRIVE,TRUMANN,Poinsett,36,4,2,0,42,29,14,0,35.667154,-90.524181
"THE WATERS OF CUMBERLAND, LLC",045359,1516  CUMBERLAND ST,LITTLE ROCK,Pulaski,69,0,0,0,61,42,6,0,34.733617,-92.270715
"SILOAM HEALTHCARE, LLC",045356,811 WEST ELGIN STREET,SILOAM SPRINGS,Benton,59,2,24,14,68,43,7,1,36.190018,-94.54913
CONWAY HEALTHCARE AND REHABILITATION CENTER,045245,2603 DAVE WARD DRIVE,CONWAY,Faulkner,7,0,10,0,68,7,2,0,35.070376,-92.465685
HERITAGE LIVING CENTER,045308,1175 MORNINGSIDE DRIVE,CONWAY,Faulkner,84,139,33,5,115,38,31,0,35.095246,-92.465825
MAPLE HEALTHCARE,045228,200 S MAPLE STREET,HAZEN,Prairie,1,1,5,0,34,6,3,0,34.778946,-91.56222000000001
THE MAPLES AT HAR-BER MEADOWS,045407,6456 LYNCHS PRAIRIE COVE,SPRINGDALE,Washington,78,19,34,14,99,53,5,0,36.177649,-94.203058
"MURFREESBORO REHAB AND NURSING, INC",045415,110 W 13TH STREET,MURFREESBORO,Pike,1,0,2,0,40,4,0,0,34.070661,-93.690594
"SUPERIOR HEALTH & REHAB, LLC",045467,625 TOMMY LEWIS DR,CONWAY,Faulkner,3,3,8,0,64,7,18,0,35.061737,-92.423992
SOUTHFORK RIVER THERAPY AND LIVING,045248,624 HWY 62/412 WEST,SALEM,Fulton,24,2,11,0,72,9,5,0,36.37279,-91.83667300000002
CRAIGHEAD NURSING CENTER,04A158,5101 HARRISBURG RD,JONESBORO,Craighead,32,34,32,7,68,23,66,0,35.77927,-90.68559000000002
"THE WATERS OF WOODLAND HILLS, LLC",045259,8701 RILEY DRIVE,LITTLE ROCK,Pulaski,0,0,3,0,29,3,0,1,34.744045,-92.364423
RECTOR NURSING AND REHAB,045394,1023 HIGHWAY 119,RECTOR,Clay,31,8,16,7,39,15,4,0,36.257213,-90.283775
GREENE ACRES NURSING HOME,045424,2402 COUNTRY CLUB ROAD,PARAGOULD,Greene,3,0,12,0,,4,0,0,36.070811,-90.517416
WOOD-LAWN HEIGHTS,045317,2800 NEELEY STREET,BATESVILLE,Independence,0,0,20,0,123,18,11,0,35.771365,-91.620626
"APPLE CREEK HEALTH AND REHAB, LLC",045465,1570 W CENTERTON BLVD,CENTERTON,Benton,81,7,23,7,80,51,38,0,36.358887,-94.307839
ROBINSON NURSING AND REHABILITATION CENTER LLC,045374,519 DONOVAN BRILEY BLVD.,NORTH LITTLE ROCK,Pulaski,,,,,,,,,34.813952,-92.272115
WALDRON NURSING CENTER INC,045383,1369 WEST 6TH STREET,WALDRON,Scott,2,16,11,0,65,3,36,0,34.896792,-94.106288
CARE MANOR NURSING AND REHAB,045351,804 BURNETT DRIVE,MOUNTAIN HOME,Baxter,46,89,19,10,57,33,24,0,36.340127,-92.399249
ARBOR OAKS HEALTHCARE AND REHABILITATION CENTER,045270,105 RUSSELLVILLE ROAD,MALVERN,Hot Spring,23,9,10,5,65,18,7,0,34.34723,-92.823463
LAKE HAMILTON HEALTH AND REHAB,045445,120 PITTMAN ROAD,HOT SPRINGS,Garland,40,5,5,4,56,35,5,0,34.452945,-93.166804
AUTUMN HILL,045295,500 HAMMOND AVENUE,BERRYVILLE,Carroll,34,15,18,15,42,24,16,0,36.359576,-93.552687
MIDTOWN POST ACUTE AND REHABILITATION - A WATERS C,045450,5720 WEST MARKHAM STREET,LITTLE ROCK,Pulaski,7,1,1,1,93,14,1,0,34.752024,-92.338409
ALMA HEALTHCARE AND REHABILITATION CENTER,045370,401 HEATHER LANE,ALMA,Crawford,33,0,22,11,45,24,0,0,35.489639,-94.229807
METHODIST HEALTH AND REHAB,045413,7425 EUPER LANE,FORT SMITH,Sebastian,8,48,43,5,115,30,16,0,35.362905,-94.350061
MONTGOMERY COUNTY NURSING HOME,045266,741 SOUTH DRIVE,MOUNT IDA,Montgomery,21,3,19,4,76,42,2,0,34.545945,-93.630768
"PRESBYTERIAN VILLAGE, INC",045436,500 BROOKSIDE DRIVE,LITTLE ROCK,Pulaski,13,1,8,0,53,8,0,0,34.757365,-92.373075
ARKANSAS HEALTH CENTER,04A293,6701 HWY 67,BENTON,Saline,14,1,0,0,220,32,45,0,34.525117,-92.654948
BARROW CREEK HEALTH AND REHAB,045432,2600  BARROW ROAD,LITTLE ROCK,Pulaski,0,0,3,0,82,10,1,0,34.73108,-92.37266
FIANNA HILLS NURSING AND REHABILITATION CENTER,045354,8411 SOUTH 28TH STREET,FORT SMITH,Sebastian,7,0,2,0,77,9,0,0,35.303899,-94.405288
"BEEBE RETIREMENT CENTER, INC.",045304,709 MCAFEE LANE,BEEBE,White,,,,,,,,,35.077745,-91.892674
"BRADFORD HOUSE NURSING AND REHAB, LLC",045373,1202 S E 30TH STREET,BENTONVILLE,Benton,50,31,12,3,69,37,40,0,36.34013,-94.193745
"THE WATERS OF WHITE HALL, LLC",045372,9209 DOLLARWAY ROAD,WHITE HALL,Jefferson,60,3,51,15,66,55,6,0,34.283076,-92.095657
COMMUNITY COMPASSION CENTER OF YELLVILLE,045451,620 NORTH PANTHER AVENUE,YELLVILLE,Marion,1,0,17,0,54,4,6,0,36.230713,-92.686173
HILLCREST CARE AND REHAB,045306,1421 WEST SECOND ST NORTH,PRESCOTT,Nevada,4,10,3,0,70,15,5,0,33.810155,-93.377618
HARRIS HEALTH AND REHAB,045440,287 SOUTH COUNTRY CLUB ROAD,OSCEOLA,Mississippi,43,10,18,6,59,25,12,0,35.702442,-90.017372
OAK RIDGE HEALTH AND REHABILITATION,045271,501 HUDSON ST,EL DORADO,Union,35,0,8,1,85,10,1,0,33.207837,-92.641362
HEATHER MANOR NURSING AND REHABILITATION CENTER,045337,400 WEST 23RD STREET,HOPE,Hempstead,3,34,26,0,91,6,35,0,33.646442,-93.592222
EDGEWOOD HEALTH AND REHAB,045428,1393 E DON TYSON PARKWAY,SPRINGDALE,Washington,35,12,8,0,76,50,12,0,36.152349,-94.116154
MEADOWVIEW HEALTHCARE AND REHAB,045341,825 NORTH GASKILL,HUNTSVILLE,Madison,5,2,0,0,47,10,2,0,36.093753,-93.742881
BAILEY CREEK HEALTH AND REHAB,045241,1621 EAST 42ND ST,TEXARKANA,Miller,64,30,13,6,62,21,3,0,33.463675,-94.026265
"WESTWOOD HEALTH AND REHAB, INC",045371,802 S WEST END STREET,SPRINGDALE,Washington,14,71,8,3,61,14,2,0,36.177063,-94.146973
"LEGACY HEIGHTS NURSING AND REHAB, LLC",045410,900 WEST 12TH ST,RUSSELLVILLE,Pope,57,9,19,7,58,26,42,0,35.267825,-93.143659
POCAHONTAS HEALTHCARE AND REHABILITATION CENTER,045284,105 COUNTRY CLUB ROAD,POCAHONTAS,Randolph,4,4,10,0,50,3,30,0,36.288874,-90.995932
ASHLEY REHABILITATION AND HEALTH CARE CENTER,045421,2600 N 22ND STREET,ROGERS,Benton,7,22,9,0,67,12,19,0,36.357025,-94.147776
GOOD SAMARITAN SOCIETY - MOUNTAIN HOME,045250,300 GOOD SAMARITAN DRIVE,MOUNTAIN HOME,Baxter,0,0,7,0,36,3,1,0,36.31491,-92.35198
GREENHURST NURSING CENTER,045447,226 SKYLER DRIVE,CHARLESTON,Franklin,1,0,22,0,96,6,19,0,35.29895,-94.013466
CORNING THERAPY AND LIVING CENTER,045433,831 NORTH MISSOURI,CORNING,Clay,1,1,3,0,53,6,1,0,36.41992,-90.586199
"ASHTON PLACE HEALTH AND REHAB, LLC",045419,318 STROZIER LANE,BARLING,Sebastian,29,7,28,7,84,25,20,3,35.32769,-94.3145
ST ELIZABETH'S PLACE,045380,3010 MIDDLEFIELD DRIVE,JONESBORO,Craighead,54,5,15,0,72,32,8,0,35.807622,-90.664643
MONETTE MANOR LLC,045312,669 HWY 139 NORTH,MONETTE,Craighead,71,0,12,6,64,37,1,0,35.899618,-90.341438
CRAWFORD HEALTHCARE AND REHABILITATION CENTER,045326,2010 MAIN STREET,VAN BUREN,Crawford,4,0,7,0,81,9,5,0,35.436514,-94.337511
DEWITT NURSING HOME,045365,1605 SOUTH MADISON ST,DE WITT,Arkansas,22,1,5,1,29,18,2,0,34.280358,-91.33897300000001
"SHERWOOD NURSING & REHABILITATION CENTER, INC",045376,245 INDIAN BAY DRIVE,SHERWOOD,Pulaski,1,2,22,0,75,12,2,0,34.843071,-92.189164
THREE RIVERS HEALTHCARE AND REHABILITATION,045391,33904 HIGHWAY 63 E,MARKED TREE,Poinsett,50,36,4,4,90,46,31,0,0,0
PROMENADE HEALTH AND REHABILITATION,045361,1101 S PROMENADE BOULEVARD,ROGERS,Benton,0,27,10,0,77,3,21,0,36.325763,-94.177826
ALLEGIANT HEALTHCARE OF MESA,035193,3130 EAST BROADWAY ROAD,MESA,Maricopa,24,33,19,1,109,7,4,0,33.408202,-111.763378
SOUTH MOUNTAIN POST ACUTE,035241,8008 S.  JESSE OWENS PARKWAY,PHOENIX,Maricopa,49,34,15,4,102,40,24,0,33.374581,-112.068267
HAVEN OF YUMA,035197,2470 SOUTH ARIZONA AVENUE,YUMA,Yuma,55,9,39,17,74,52,22,0,32.683163,-114.615987
SANTA ROSA CARE CENTER,035004,1650 NORTH SANTA ROSA AVENUE,TUCSON,Pima,1,0,12,0,115,6,0,0,32.242612,-110.886223
GOOD SAMARITAN SOCIETY-PRESCOTT VILLAGE,035158,1030 SCOTT DRIVE,PRESCOTT,Yavapai,6,11,6,0,41,8,3,0,34.562345,-112.474635
ADVANCED HEALTHCARE OF MESA,035266,5755 EAST MAIN STREET,MESA,Maricopa,16,6,1,0,38,26,21,0,33.415513000000004,-111.707295
MISSION PALMS POST ACUTE,035071,6461 EAST BAYWOOD AVENUE,MESA,Maricopa,0,3,45,21,119,4,2,0,33.410439,-111.692187
HAVEN OF COTTONWOOD,035093,197 SOUTH WILLARD STREET,COTTONWOOD,Yavapai,0,0,6,0,41,0,1,0,34.737926,-112.027345
CARING HOUSE,035216,510 SOUTH OCOTILLO ROAD,SACATON,Pinal,3,10,20,0,69,18,222,0,33.24772,-111.836866
HAVEN OF SCOTTSDALE,035059,3293 NORTH DRINKWATER BOULEVARD,SCOTTSDALE,Maricopa,0,1,7,0,45,6,3,0,33.48566,-111.923896
MOUNTAIN VIEW CARE CENTER,035232,1313 WEST MAGEE ROAD,TUCSON,Pima,11,6,10,1,72,5,6,0,32.351703,-110.993317
THE PEAKS HEALTH & REHABILITATION,035257,3150 NORTH WINDING BROOK ROAD,FLAGSTAFF,Coconino,0,3,0,0,29,9,18,1,35.233451,-111.660627
SABINO CANYON REHABILITATION & CARE CENTER,035151,5830 EAST PIMA STREET,TUCSON,Pima,2,2,7,1,86,1,2,0,32.243415,-110.868126
FREEDOM PLAZA CARE CENTER,035256,13714 NORTH PLAZA DEL RIO BLVD,PEORIA,Maricopa,1,3,8,1,46,14,10,0,33.608627,-112.257628
WINSLOW CAMPUS OF CARE,035254,826 WEST DESMOND STREET,WINSLOW,Navajo,0,0,8,0,101,5,8,0,35.03728,-110.70384
ASPIRE TRANSITIONAL CARE,035296,1521 NORTH PINE CLIFF DRIVE,FLAGSTAFF,Coconino,0,0,1,0,17,3,14,0,0,0
MOUNTAIN VIEW MANOR,035114,1045 SANDRETTO DRIVE,PRESCOTT,Yavapai,3,0,7,2,48,2,4,0,34.602671,-112.459052
IMMANUEL CAMPUS OF CARE,035250,11301 NORTH 99TH AVENUE,PEORIA,Maricopa,25,16,30,10,152,28,10,0,33.585642,-112.272547
THE GARDENS OF SCOTTSDALE,035259,6001 EAST THOMAS ROAD,SCOTTSDALE,Maricopa,0,0,2,0,32,10,0,0,33.480115,-111.950866
FRIENDSHIP VILLAGE OF TEMPE,035074,2525 EAST SOUTHERN AVENUE,TEMPE,Maricopa,12,9,22,3,74,47,39,0,33.392997,-111.884127
CAMELBACK POST ACUTE AND REHABILITATION,035088,4635 NORTH 14TH STREET,PHOENIX,Maricopa,41,19,7,4,79,4,0,0,33.505108,-112.051897
GOOD SAMARITAN SOCIETY-PRESCOTT VALLEY,035244,3380 NORTH WINDSONG DRIVE,PRESCOTT VALLEY,Yavapai,1,0,5,0,51,5,1,0,34.591787,-112.326617
LIFESTREAM AT COOK HEALTH CARE,035137,11527 WEST PEORIA AVE,YOUNGTOWN,Maricopa,5,7,20,9,56,19,20,0,33.580016,-112.304715
ARCHIE HENDRICKS SENIOR SKILLED NURSING FACILITY,035263,HCO 1 BOX 9100,SELLS,Pima,10,2,1,1,37,21,23,0,0,0
ACACIA HEALTH CENTER,035279,4555 EAST MAYO BLVD,PHOENIX,Maricopa,4,1,6,1,42,15,7,0,33.668008,-111.982045
CASAS ADOBES POST ACUTE REHAB CENTER,035070,1919 WEST MEDICAL STREET,TUCSON,Pima,77,51,44,29,89,43,48,0,32.321988,-111.007223
ARCHSTONE CARE CENTER,035130,1980 WEST PECOS ROAD,CHANDLER,Maricopa,19,3,13,3,60,18,6,0,33.291464,-111.873638
GOOD SAMARITAN SOCIETY-QUIBURI MISSION,035214,850 SOUTH HIGHWAY 80,BENSON,Cochise,0,7,7,0,54,2,0,0,31.955927,-110.286406
HAVEN OF SHOW LOW,035139,2401 EAST HUNT STREET,SHOW LOW,Navajo,22,1,32,8,38,16,5,0,34.203713,-110.014734
DESERT COVE NURSING CENTER,035095,1750 WEST FRYE ROAD,CHANDLER,Maricopa,10,14,9,9,54,10,7,0,33.298693,-111.872797
THE REHABILITATION CENTER AT THE PALAZZO,035116,6246 NORTH 19TH AVENUE,PHOENIX,Maricopa,1,1,24,4,46,1,0,1,33.528869,-112.099826
LIFE CARE CENTER OF SCOTTSDALE,035143,9494 EAST BECKER LANE,SCOTTSDALE,Maricopa,29,24,10,4,29,16,10,0,33.584108,-111.875915
WELLSPRINGS THERAPY CENTER OF PHOENIX,035293,3008 NORTH 3RD STREET,PHOENIX,Maricopa,1,0,2,0,30,6,0,0,33.48243,-112.069428
HERITAGE COURT POST ACUTE OF SCOTTSDALE,035083,3339 NORTH DRINKWATER BOULEVARD,SCOTTSDALE,Maricopa,41,12,19,1,49,29,10,0,33.487336,-111.921776
HAVASU REGIONAL MEDICAL CENTER,035287,1811  MESQUITE AVE,LAKE HAVASU CITY,Mohave,5,1,0,0,14,9,2,0,34.479129,-114.33832
ARIZONA STATE VETERAN HOME-PHX,035234,4141 NORTH S HERRERA WAY,PHOENIX,Maricopa,28,33,29,6,113,34,24,0,33.496140000000004,-112.06929
FOOTHILLS REHABILITATION CENTER,035064,2250 NORTH CRAYCROFT ROAD,TUCSON,Pima,9,47,1,1,116,28,5,0,32.249117,-110.87528600000002
"THE CENTER AT VAL VISTA, LLC",035291,3744 SOUTH ROME STREET,GILBERT,Maricopa,10,2,19,1,54,17,10,0,33.280783,-111.750965
PARK AVENUE HEALTH AND REHABILITATION CENTER,035174,2001 NORTH PARK AVENUE,TUCSON,Pima,28,15,22,5,114,12,3,0,32.246033,-110.95683
SUN CITY HEALTH AND REHABILITATION CENTER,035225,9940 WEST UNION HILLS DRIVE,SUN CITY,Maricopa,7,1,24,0,62,10,2,0,33.652601,-112.280455
SANTE OF CHANDLER,035283,825 SOUTH 94TH STREET,CHANDLER,Maricopa,12,0,7,1,68,6,10,0,33.293244,-111.880045
BROOKDALE SANTA CATALINA,035253,7500 NORTH CALLE SIN ENVIDIA,TUCSON,Pima,0,0,0,0,26,3,0,0,32.342795,-110.935914
HERITAGE HEALTH CARE CENTER,035141,1300  SOUTH STREET,GLOBE,Gila,3,2,3,0,65,3,2,0,33.393744,-110.772147
SUN HEALTH LA LOMA CARE CENTER,035264,14260 SOUTH DENNY BOULEVARD,LITCHFIELD PARK,Maricopa,2,6,3,0,25,9,20,0,33.510626,-112.36425000000001
MARYLAND GARDENS CARE CENTER,035247,31 WEST MARYLAND AVENUE,PHOENIX,Maricopa,11,15,0,2,44,4,6,0,33.531058,-112.075355
TEMPE POST ACUTE,035106,6100 SOUTH RURAL ROAD,TEMPE,Maricopa,11,30,9,1,46,53,4,0,33.366873,-111.92861
PEORIA POST ACUTE AND REHABILITATION,035144,13215 NORTH 94TH DRIVE,PEORIA,Maricopa,42,59,6,0,98,34,12,0,33.604208,-112.26262
COPPER HEALTH ORO VALLEY,035288,1119 EAST RANCHO VISTOSO BLVD,ORO VALLEY,Pima,0,5,1,0,15,1,17,0,32.465274,-110.955936
"HAVEN OF SANDPOINTE, LLC",035096,2222 SOUTH AVENUE A,YUMA,Yuma,55,5,45,16,77,32,47,0,32.686939,-114.63325500000002
LA CANADA CARE CENTER,035189,7970 NORTH LA CANADA DRIVE,TUCSON,Pima,32,20,13,1,88,15,6,0,32.350849,-110.99562
PUEBLO SPRINGS REHABILITATION CENTER,035068,5545 EAST LEE STREET,TUCSON,Pima,7,9,1,0,77,3,0,0,32.241629,-110.874625
YUMA NURSING CENTER,035152,1850 WEST 25TH STREET,YUMA,Yuma,52,0,27,12,65,20,0,1,32.682043,-114.642351
HAVEN OF SAFFORD,035172,1933 PEPPERTREE DRIVE,SAFFORD,Graham,55,12,45,16,50,24,32,0,32.815223,-109.73138
THE LINGENFELTER CENTER,035262,1099 SUNRISE AVENUE,KINGMAN,Mohave,0,0,11,0,67,4,1,0,35.214936,-114.040839
RIM COUNTRY HEALTH & RETIREMENT COMMUNITY,035134,807 WEST LONGHORN ROAD,PAYSON,Gila,58,28,48,21,51,29,5,0,34.238758,-111.336226
MARAVILLA CARE CENTER,035175,8825 SOUTH 7TH STREET,PHOENIX,Maricopa,34,7,15,3,116,21,1,0,33.366034,-112.065986
PALM VALLEY REHAB & CARE CTR,035255,13575 WEST MCDOWELL ROAD,GOODYEAR,Maricopa,87,67,40,18,128,44,36,0,33.464261,-112.351655
DESERT HAVEN CARE CENTER,035062,2645 EAST THOMAS ROAD,PHOENIX,Maricopa,5,1,11,1,78,3,2,0,33.480363,-112.024164
HAVEN OF FLAGSTAFF,035091,800 WEST UNIVERSITY AVENUE,FLAGSTAFF,Coconino,1,0,22,1,74,5,6,0,35.184219,-111.66525400000002
NEURORESTORATIVE,035274,5301 EAST THOMAS ROAD,PHOENIX,Maricopa,0,0,0,0,,5,1,0,33.480036,-111.966609
BANNER BOSWELL REHABILITATION CENTER,035121,10601 WEST SANTA FE DRIVE,SUN CITY,Maricopa,,,,,,,,,33.602538,-112.287357
ARIZONA STATE VETERAN HOME-TUCSON,035284,555 EAST AJO WAY,TUCSON,Pima,0,0,30,0,99,4,1,0,32.177887,-110.961518
DESERT HIGHLANDS CARE CENTER,035169,1081 KATHLEEN AVE,KINGMAN,Mohave,19,0,3,1,59,13,0,0,35.21281,-114.040747
CORONADO HEALTHCARE CENTER,035132,11411 NORTH 19TH AVE,PHOENIX,Maricopa,40,36,19,1,171,23,14,0,33.589817,-112.099674
LAKE PLEASANT POST ACUTE REHABILITATION CENTER,035111,20625 NORTH LAKE PLEASANT ROAD,PEORIA,Maricopa,3,0,34,24,99,4,8,0,33.671229,-112.279875
BELLA VITA HEALTH AND REHABILITATION CENTER,035092,5125 NORTH 58TH AVENUE,GLENDALE,Maricopa,95,33,43,21,139,34,27,0,33.51243,-112.183946
DEVON GABLES REHABILITATION CENTER,035145,6150 EAST GRANT ROAD,TUCSON,Pima,16,82,55,2,188,25,133,0,32.250573,-110.860892
HORIZON POST ACUTE AND REHABILITATION CENTER,035159,4704 WEST DIANA AVENUE,GLENDALE,Maricopa,53,17,10,8,150,38,1,0,33.563109,-112.161077
CHANDLER POST ACUTE AND REHABILITATION,035101,2121 WEST ELGIN STREET,CHANDLER,Maricopa,26,4,6,6,100,13,0,0,33.297194000000005,-111.877938
HAVASU NURSING CENTER,035100,3576 KEARSAGE DRIVE,LAKE HAVASU CITY,Mohave,0,0,10,0,49,1,0,0,34.454679,-114.264775
LA ESTANCIA NURSING AND REHABILITATION CENTER,035270,15810 SOUTH 42ND STREET,PHOENIX,Maricopa,44,3,25,5,85,23,1,0,33.303312,-111.993017
NORTH MOUNTAIN MEDICAL AND REHABILITATION CENTER,035087,9155 NORTH THIRD STREET,PHOENIX,Maricopa,1,2,10,2,151,58,15,0,33.569684,-112.069547
PROVIDENCE PLACE AT GLENCROFT,035154,8641 NORTH 67TH AVE,GLENDALE,Maricopa,63,0,30,30,111,45,0,0,33.561938,-112.202945
LIFESTREAM AT SUN RIDGE,035243,12215 WEST BELL ROAD,SURPRISE,Maricopa,4,3,0,0,45,10,5,0,33.6386,-112.323944
DESERT BLOSSOM HEALTH & REHAB CENTER,035164,60 SOUTH 58TH STREET,MESA,Maricopa,0,0,23,6,79,4,1,0,33.415219,-111.705195
"ALLEGIANT HEALTHCARE OF PHOENIX, LLC",035290,1880 EAST VAN BUREN STREET,PHOENIX,Maricopa,4,2,9,0,79,9,22,0,33.451436,-112.04179
HAVEN OF TUCSON,035165,3705 NORTH SWAN ROAD,TUCSON,Pima,21,4,14,4,25,39,0,0,32.274013,-110.892621
LIFE CARE CENTER OF PARADISE VALLEY,035146,4065 EAST BELL ROAD,PHOENIX,Maricopa,94,48,15,14,84,39,38,0,33.640593,-111.993442
SHEA POST ACUTE REHABILITATION CENTER,035105,11150 NORTH 92ND STREET,SCOTTSDALE,Maricopa,14,62,5,2,90,11,15,0,33.586564,-111.882762
"CENTER AT ARROWHEAD, LLC",035289,7201 W CAMINO SAN XAVIER AVE,GLENDALE,Maricopa,2,8,11,0,62,4,14,0,33.640728,-112.213882
HAVEN OF DOUGLAS,035180,1400 NORTH SAN ANTONIO AVENUE,DOUGLAS,Cochise,24,2,18,4,38,13,6,0,31.348803000000004,-109.532286
WELLSPRINGS THERAPY CENTER OF GILBERT,035285,3319 SOUTH MERCY ROAD,GILBERT,Maricopa,1,8,0,0,20,6,7,0,33.290731,-111.748036
HAVEN OF SAGUARO VALLEY,035085,6651 EAST CARONDELET DRIVE,TUCSON,Pima,19,2,8,1,60,3,0,0,32.2257,-110.851307
CHRISTIAN CARE NURSING CENTER,035173,11812 NORTH 19TH AVE,PHOENIX,Maricopa,23,31,14,7,33,20,22,0,33.593708,-112.099637
PLAZA HEALTHCARE,035084,1475 NORTH GRANITE REEF ROAD,SCOTTSDALE,Maricopa,44,34,22,2,137,37,79,0,33.463836,-111.900522
GRANITE CREEK HEALTH & REHABILITATION CENTER,035131,1045 SCOTT DRIVE,PRESCOTT,Yavapai,51,36,18,15,57,25,18,0,34.561017,-112.474584
CHINLE NURSING HOME,035242,PO BOX 910,CHINLE,Apache,2,21,3,1,62,9,28,0,0,0
MESA CHRISTIAN HEALTH AND REHABILITATION CENTER,035196,255 WEST BROWN ROAD,MESA,Maricopa,22,11,18,3,114,19,0,0,33.435217,-111.837501
"SAPPHIRE ESTATES REHAB CENTRE, LLC",035292,2040 NORTH WILMOT ROAD,TUCSON,Pima,6,0,7,7,71,19,22,0,32.247177,-110.857933
PAYSON CARE CENTER,035117,107 EAST LONE PINE DRIVE,PAYSON,Gila,3,2,7,1,74,10,3,1,34.231411,-111.323154
SUN WEST CHOICE HEALTHCARE & REHAB,035110,14002 WEST MEEKER BLVD,SUN CITY WEST,Maricopa,29,11,41,13,121,6,6,0,33.658882,-112.363115
SPLENDIDO AT RANCHO VISTOSO,035273,13500 NORTH RANCHO VISTOSO BLVD,TUCSON,Pima,0,3,11,0,36,7,40,0,32.450665,-110.974943
SPRINGDALE VILLAGE HEALTHCARE,035207,7255 EAST BROADWAY ROAD,MESA,Maricopa,23,26,19,5,50,19,16,0,33.407917,-111.67400600000002
HAVEN OF GLOBE,035233,1100 MONROE STREET,GLOBE,Gila,53,0,23,6,62,24,12,0,33.394225,-110.775609
PUEBLO NORTE SENIOR LIVING COMMUNITY,035090,7100 EAST MESCAL STREET,SCOTTSDALE,Maricopa,0,0,15,0,66,13,1,0,33.586667,-111.928414
DESERT TERRACE HEALTHCARE CENTER,035014,2509 NORTH 24TH STREET,PHOENIX,Maricopa,56,55,16,10,80,25,20,0,33.47547,-112.03021800000002
SUNVIEW RESPIRATORY AND REHABILITATION,035245,12207 NORTH 113TH AVENUE,YOUNGTOWN,Maricopa,23,5,12,1,105,25,7,0,33.595801,-112.30259
HAVEN OF SEDONA,035094,505 JACKS CANYON ROAD,SEDONA,Coconino,0,0,13,0,58,4,4,0,34.779797,-111.752775
VILLA MARIA CARE CENTER,035147,4310 EAST GRANT ROAD,TUCSON,Pima,4,5,99,0,46,14,65,0,32.25061,-110.9005
SANTE OF NORTH SCOTTSDALE,035286,17490 NORTH 93RD STREET,SCOTTSDALE,Maricopa,25,2,3,1,57,24,6,0,33.644313,-111.882243
CITADEL POST ACUTE,035103,5121 EAST BROADWAY ROAD,MESA,Maricopa,69,28,30,9,81,51,5,0,33.408373,-111.720684
NORTH CHANDLER PLACE -  A CONTINUUM OF CARE COMMUN,035251,2555 NORTH PRICE ROAD,CHANDLER,Maricopa,15,28,16,5,38,11,16,0,33.34456,-111.89305
THE TERRACES OF PHOENIX,035003,7550 NORTH 16TH STREET,PHOENIX,Maricopa,19,37,9,3,31,15,11,0,33.546512,-112.047586
CATALINA POST ACUTE AND REHABILITATION,035190,2611 NORTH WARREN AVENUE,TUCSON,Pima,34,2,8,0,79,22,0,0,32.254717,-110.946879
SUN HEALTH GRANDVIEW CARE CENTER,035265,14505 WEST GRANITE VALLEY DRIVE,SUN CITY WEST,Maricopa,0,8,10,0,33,9,1,0,33.662289,-112.373819
"VI AT GRAYHAWK, A VI AND PLAZA COMPANIES COMMUNITY",035272,7501 EAST THOMPSON PEAK PARKWAY,SCOTTSDALE,Maricopa,0,3,13,0,29,3,1,0,33.669089,-111.917916
BEATITUDES CAMPUS,035176,1712 WEST GLENDALE AVENUE,PHOENIX,Maricopa,21,3,17,8,41,24,9,0,33.538584,-112.095684
THE GARDENS REHAB & CARE CENTER,035249,3131 WESTERN AVENUE,KINGMAN,Mohave,46,0,16,5,66,22,24,0,35.214486,-114.040067
PRESCOTT NURSING AND REHABILITATION CENTER,035127,864 DOUGHERTY STREET,PRESCOTT,Yavapai,4,1,14,1,41,6,1,0,34.555055,-112.48854
ESTRELLA CENTER,035166,350 EAST LA CANADA,AVONDALE,Maricopa,56,8,33,4,124,50,9,0,33.446209,-112.346907
SANTA RITA NURSING & REHABILITATION CENTER,035073,150 NORTH LA CANADA DRIVE,GREEN VALLEY,Pima,9,6,11,3,63,23,6,0,31.872429999999998,-110.994981
HANDMAKER HOME FOR THE AGING,035016,2221 NORTH ROSEMONT BOULEVARD,TUCSON,Pima,,,,,,,,,32.248704,-110.884074
ADVANCED HEALTH CARE OF GLENDALE,035275,16825 NORTH 63RD AVENUE,GLENDALE,Maricopa,20,51,5,2,28,23,20,0,33.63692,-112.194919
SANTE OF MESA,035280,5358 EAST BASELINE ROAD,MESA,Maricopa,16,1,6,1,62,26,0,0,33.379339,-111.715533
HAVEN OF LAKESIDE,035277,3401 NORTH LOCKWOOD DRIVE,LAKESIDE,Navajo,46,0,8,2,45,22,9,0,34.17024,-110.004772
APACHE JUNCTION HLTH CENTER,035112,2012 WEST SOUTHERN AVE,APACHE JUNCTION,Pinal,40,16,21,5,80,23,31,0,33.393328,-111.566011
LIFE CARE CENTER OF YUMA,035133,2450 SOUTH 19TH AVENUE,YUMA,Yuma,45,20,17,11,57,37,26,0,32.68309,-114.64296599999999
LIFE CARE CENTER OF NORTH GLENDALE,035126,13620 NORTH 55TH AVENUE,GLENDALE,Maricopa,53,71,26,5,126,48,54,0,33.607899,-112.177174
"VI AT SILVERSTONE, A VI AND PLAZA COMPANIES COMMUN",035281,22605 NORTH 74TH STREET,SCOTTSDALE,Maricopa,3,4,1,0,19,8,3,0,33.691462,-111.920879
MI CASA NURSING CENTER,035120,330 SOUTH PINNULE CIRCLE,MESA,Maricopa,26,11,7,3,94,23,7,0,33.410648,-111.69623500000002
"SAPPHIRE OF TUCSON NURSING AND REHAB, LLC",035099,2900 EAST MILBER STREET,TUCSON,Pima,125,0,62,35,151,50,4,0,32.172685,-110.929654
THE LEGACY REHAB & CARE CENTER,035097,2812 SILVER CREEK ROAD,BULLHEAD CITY,Mohave,57,15,28,12,61,42,52,1,35.109353,-114.55151800000002
LIFE CARE CENTER OF TUCSON,035140,6211 NORTH LA CHOLLA BOULEVARD,TUCSON,Pima,24,10,18,6,83,25,16,0,32.319814,-111.012261
SCOTTSDALE VILLAGE SQUARE,035217,2620 NORTH 68TH STREET,SCOTTSDALE,Maricopa,23,47,21,10,98,42,69,0,33.477565,-111.934768
OASIS PAVILION NURSING & REHABILITATION CENTER,035276,161 WEST RODEO ROAD,CASA GRANDE,Pinal,24,4,7,6,91,23,12,1,32.92343,-111.753174
SUNCREST HEALTHCARE CENTER,035205,2211 EAST SOUTHERN AVENUE,PHOENIX,Maricopa,23,0,1,0,57,40,8,0,33.393072000000004,-112.033525
HAVEN OF LAKE HAVASU,035240,2781 OSBORNE DRIVE,LAKE HAVASU CITY,Mohave,40,13,31,10,55,20,19,0,34.452626,-114.294847
ALTA MESA HEALTH AND REHABILITATION,035171,5848 EAST UNIVERSITY DRIVE,MESA,Maricopa,21,3,12,0,47,31,8,0,33.42282,-111.704567
OSBORN HEALTH AND REHABILITATION,035076,3333 NORTH CIVIC CENTER PLAZA,SCOTTSDALE,Maricopa,48,36,7,2,90,20,20,0,33.48673600000001,-111.921884
SANTE OF SURPRISE,035282,14775 WEST YORKSHIRE DRIVE,SURPRISE,Maricopa,36,12,6,2,59,36,5,0,33.660288,-112.379314
THE CENTER AT TUCSON,035295,5020 EAST GLENN STREET,TUCSON,Pima,0,2,159,1,88,2,5,0,32.25789,-110.885655
PHOENIX MOUNTAIN POST ACUTE,035072,13232 NORTH TATUM BLVD,PHOENIX,Maricopa,69,5,21,11,108,26,17,0,33.606782,-111.977981
MONTECITO POST ACUTE CARE AND REHABILITATION,035135,51 SOUTH 48TH STREET,MESA,Maricopa,138,8,47,10,188,60,2,0,33.413916,-111.727745
RIO VISTA POST ACUTE AND REHABILITATION,035183,10323 WEST OLIVE AVENUE,PEORIA,Maricopa,15,34,17,7,86,8,15,0,33.56569,-112.28271200000002
FOUNTAIN VIEW VILLAGE,035260,16455 EAST AVENUE OF THE FOUNTAINS,FOUNTAIN HILLS,Maricopa,1,1,6,0,26,0,12,0,33.608449,-111.725983
RIDGECREST HEALTHCARE,035125,16640 NORTH 38TH STREET,PHOENIX,Maricopa,39,53,23,10,107,22,35,0,33.638428,-112.000471
THE SPRINGS AT THE HACIENDA BLDG 6,035294,2720 EAST RIVER ROAD,TUCSON,Pima,4,4,0,0,0,6,11,0,32.284873,-110.931672
HAVEN OF PHOENIX,035107,4202 NORTH 20TH AVENUE,PHOENIX,Maricopa,50,2,21,9,84,33,2,0,33.497038,-112.102152
HAVEN OF CAMP VERDE,035118,86 WEST SALT MINE ROAD,CAMP VERDE,Yavapai,0,1,23,0,35,0,3,0,34.554841,-111.855703
LIFE CARE CENTER OF SIERRA VISTA,035136,2305 EAST WILCOX DRIVE,SIERRA VISTA,Cochise,6,5,11,0,85,9,7,0,31.552077000000004,-110.275027
ADVANCE HEALTH CARE OF SCOTTSDALE,035268,9846 NORTH 95TH STREET,SCOTTSDALE,Maricopa,14,22,2,1,34,25,11,0,33.576007,-111.876096
SURPRISE HEALTH AND REHABILITATION CENTER,035297,14660 W PARKWOOD DRIVE,SURPRISE,Maricopa,3,0,10,0,67,7,3,0,33.649189,-112.375386
"HAVEN OF SIERRA VISTA, LLC",035086,660 SOUTH CORONADO DRIVE,SIERRA VISTA,Cochise,32,9,31,5,66,29,5,0,31.547884999999997,-110.278574
THE FORUM AT DESERT HARBOR,035201,13840 NORTH DESERT HARBOR DRIVE,PEORIA,Maricopa,2,0,2,0,11,6,1,0,33.614582,-112.24909400000001
SIERRA WINDS,035231,17300 NORTH 88TH AVE,PEORIA,Maricopa,1,0,14,0,44,13,8,0,33.641308,-112.2485
